[
  {
    "CallTime": "1:00 AM",
    "CallTimeDate": "03/01/18 1:00",
    "StartAddress": "Gerji",
    "latitude": 9.0062194,
    "longitude": 38.8231602,
    "type": "neighborhood,political",
    "Weekday": 4
  },
  {
    "CallTime": "1:05 AM",
    "CallTimeDate": "03/01/18 1:05",
    "StartAddress": "Wellosefer",
    "latitude": 8.9924014,
    "longitude": 38.7757111,
    "type": "establishment,mosque,place_of_worship,point_of_interest,premise",
    "Weekday": 4
  },
  {
    "CallTime": "1:10 AM",
    "CallTimeDate": "03/01/18 1:10",
    "StartAddress": "Kazanchis",
    "latitude": 9.0165737,
    "longitude": 38.7760791,
    "type": "neighborhood,political",
    "Weekday": 4
  },
  {
    "CallTime": "1:10 AM",
    "CallTimeDate": "03/01/18 1:10",
    "StartAddress": "Century Mall",
    "latitude": 9.0189812,
    "longitude": 38.8140918,
    "type": "establishment,point_of_interest,shopping_mall",
    "Weekday": 4
  },
  {
    "CallTime": "2:22 AM",
    "CallTimeDate": "03/01/18 2:22",
    "StartAddress": "Mexico",
    "latitude": 9.0102287,
    "longitude": 38.7445091,
    "type": "bank,establishment,finance,point_of_interest",
    "Weekday": 4
  },
  {
    "CallTime": "9:00 AM",
    "CallTimeDate": "02/04/18 9:00",
    "StartAddress": "Zenebwork Menaheria",
    "latitude": 8.9877509,
    "longitude": 38.7061402,
    "type": "establishment,point_of_interest",
    "Weekday": 0
  },
  {
    "CallTime": "2:54 AM",
    "CallTimeDate": "03/01/18 2:54",
    "StartAddress": "Friendship Hotel",
    "latitude": 8.9940225,
    "longitude": 38.7847689,
    "type": "establishment,lodging,point_of_interest",
    "Weekday": 4
  },
  {
    "CallTime": "12:10 PM",
    "CallTimeDate": "03/04/18 12:10",
    "StartAddress": "Zenebework",
    "latitude": 8.9877509,
    "longitude": 38.7061402,
    "type": "establishment,point_of_interest",
    "Weekday": 0
  },
  {
    "CallTime": "3:48 AM",
    "CallTimeDate": "03/01/18 3:48",
    "StartAddress": "Bambis",
    "latitude": 9.0098881,
    "longitude": 38.7720447,
    "type": "establishment,food,grocery_or_supermarket,point_of_interest,store,supermarket",
    "Weekday": 4
  },
  {
    "CallTime": "4:00 AM",
    "CallTimeDate": "03/01/18 4:00",
    "StartAddress": "Megenagna",
    "latitude": 9.0204692,
    "longitude": 38.8024029,
    "type": "bus_station,establishment,point_of_interest,transit_station",
    "Weekday": 4
  },
  {
    "CallTime": "4:00 AM",
    "CallTimeDate": "03/01/18 4:00",
    "StartAddress": "Mamocacha",
    "latitude": 8.9947459,
    "longitude": 38.7786155,
    "type": "establishment,food,point_of_interest,restaurant",
    "Weekday": 4
  },
  {
    "CallTime": "4:05 AM",
    "CallTimeDate": "03/01/18 4:05",
    "StartAddress": "MKS",
    "latitude": 8.9995109,
    "longitude": 38.7851796,
    "type": "establishment,food,point_of_interest,restaurant",
    "Weekday": 4
  },
  {
    "CallTime": "4:07 AM",
    "CallTimeDate": "03/01/18 4:07",
    "StartAddress": "Bole Sheger",
    "latitude": 8.9987784,
    "longitude": 38.7852989,
    "type": "premise",
    "Weekday": 4
  },
  {
    "CallTime": "4:26 AM",
    "CallTimeDate": "03/01/18 4:26",
    "StartAddress": "Bole Ruwanda",
    "latitude": 8.9869641,
    "longitude": 38.7806332,
    "type": "establishment,point_of_interest,taxi_stand",
    "Weekday": 4
  },
  {
    "CallTime": "8:35 AM",
    "CallTimeDate": "02/05/18 8:35",
    "StartAddress": "Wellosefer Wongelawit",
    "latitude": 8.9813327,
    "longitude": 38.7637068,
    "type": "establishment,point_of_interest,shopping_mall",
    "Weekday": 1
  },
  {
    "CallTime": "4:28 AM",
    "CallTimeDate": "03/01/18 4:28",
    "StartAddress": "Monarch Hotel",
    "latitude": 8.9946281,
    "longitude": 38.7855226,
    "type": "establishment,lodging,point_of_interest",
    "Weekday": 4
  },
  {
    "CallTime": "4:35 AM",
    "CallTimeDate": "03/01/18 4:35",
    "StartAddress": "Ruwanda Embassy",
    "latitude": 8.9881665,
    "longitude": 38.7769854,
    "type": "embassy,establishment,point_of_interest",
    "Weekday": 4
  },
  {
    "CallTime": "4:35 AM",
    "CallTimeDate": "03/01/18 4:35",
    "StartAddress": "Monarch Hotel",
    "latitude": 8.9946281,
    "longitude": 38.7855226,
    "type": "establishment,lodging,point_of_interest",
    "Weekday": 4
  },
  {
    "CallTime": "4:36 AM",
    "CallTimeDate": "03/01/18 4:36",
    "StartAddress": "Bole",
    "latitude": 8.9831138,
    "longitude": 38.8100855,
    "type": "political,sublocality,sublocality_level_1",
    "Weekday": 4
  },
  {
    "CallTime": "4:40 AM",
    "CallTimeDate": "03/01/18 4:40",
    "StartAddress": "Korean",
    "latitude": 8.9900505,
    "longitude": 38.7811522,
    "type": "establishment,food,point_of_interest,restaurant",
    "Weekday": 4
  },
  {
    "CallTime": "4:51 AM",
    "CallTimeDate": "03/01/18 4:51",
    "StartAddress": "Shoa Supermarket",
    "latitude": 9.0216574,
    "longitude": 38.8321128,
    "type": "establishment,food,grocery_or_supermarket,point_of_interest,store,supermarket",
    "Weekday": 4
  },
  {
    "CallTime": "4:53 AM",
    "CallTimeDate": "03/01/18 4:53",
    "StartAddress": "Kazanchis",
    "latitude": 9.0165737,
    "longitude": 38.7760791,
    "type": "neighborhood,political",
    "Weekday": 4
  },
  {
    "CallTime": "4:57 AM",
    "CallTimeDate": "2/14/18 4:57",
    "StartAddress": "Wellosefer Min Building",
    "latitude": 8.9913389,
    "longitude": 38.7723688,
    "type": "premise",
    "Weekday": 3
  },
  {
    "CallTime": "5:03 AM",
    "CallTimeDate": "03/01/18 5:03",
    "StartAddress": "Ramada",
    "latitude": 8.991897,
    "longitude": 38.782873,
    "type": "establishment,lodging,point_of_interest",
    "Weekday": 4
  },
  {
    "CallTime": "5:08 AM",
    "CallTimeDate": "03/01/18 5:08",
    "StartAddress": "ECA",
    "latitude": 9.01475,
    "longitude": 38.7642074,
    "type": "establishment,finance,point_of_interest",
    "Weekday": 4
  },
  {
    "CallTime": "5:10 AM",
    "CallTimeDate": "03/01/18 5:10",
    "StartAddress": "Ednamall",
    "latitude": 8.9973888,
    "longitude": 38.7867701,
    "type": "establishment,point_of_interest,shopping_mall",
    "Weekday": 4
  },
  {
    "CallTime": "6:30 AM",
    "CallTimeDate": "03/01/18 6:30",
    "StartAddress": "Ghion Hotel",
    "latitude": 9.013381,
    "longitude": 38.7610321,
    "type": "establishment,lodging,point_of_interest",
    "Weekday": 4
  },
  {
    "CallTime": "6:30 AM",
    "CallTimeDate": "03/01/18 6:30",
    "StartAddress": "Ghion Hotel",
    "latitude": 9.013381,
    "longitude": 38.7610321,
    "type": "establishment,lodging,point_of_interest",
    "Weekday": 4
  },
  {
    "CallTime": "6:45 AM",
    "CallTimeDate": "03/01/18 6:45",
    "StartAddress": "Ghion Hotel",
    "latitude": 9.013381,
    "longitude": 38.7610321,
    "type": "establishment,lodging,point_of_interest",
    "Weekday": 4
  },
  {
    "CallTime": "6:47 AM",
    "CallTimeDate": "03/01/18 6:47",
    "StartAddress": "Sanford Appartment",
    "latitude": 9.0132644,
    "longitude": 38.7678042,
    "type": "route",
    "Weekday": 4
  },
  {
    "CallTime": "6:50 AM",
    "CallTimeDate": "03/01/18 6:50",
    "StartAddress": "Ghion Hotel",
    "latitude": 9.013381,
    "longitude": 38.7610321,
    "type": "establishment,lodging,point_of_interest",
    "Weekday": 4
  },
  {
    "CallTime": "7:10 AM",
    "CallTimeDate": "03/01/18 7:10",
    "StartAddress": "Kazanchis",
    "latitude": 9.0165737,
    "longitude": 38.7760791,
    "type": "neighborhood,political",
    "Weekday": 4
  },
  {
    "CallTime": "7:20 AM",
    "CallTimeDate": "03/01/18 7:20",
    "StartAddress": "Bole",
    "latitude": 8.9831138,
    "longitude": 38.8100855,
    "type": "political,sublocality,sublocality_level_1",
    "Weekday": 4
  },
  {
    "CallTime": "11:45 AM",
    "CallTimeDate": "02/05/18 11:45",
    "StartAddress": "Wellosefer Ambasel Building",
    "latitude": 8.9856636,
    "longitude": 38.7677787,
    "type": "establishment,point_of_interest",
    "Weekday": 1
  },
  {
    "CallTime": "7:40 AM",
    "CallTimeDate": "03/01/18 7:40",
    "StartAddress": "Bole",
    "latitude": 8.9831138,
    "longitude": 38.8100855,
    "type": "political,sublocality,sublocality_level_1",
    "Weekday": 4
  },
  {
    "CallTime": "7:42 AM",
    "CallTimeDate": "03/01/18 7:42",
    "StartAddress": "Monarch Hotel",
    "latitude": 8.9946281,
    "longitude": 38.7855226,
    "type": "establishment,lodging,point_of_interest",
    "Weekday": 4
  },
  {
    "CallTime": "8:00 AM",
    "CallTimeDate": "03/01/18 8:00",
    "StartAddress": "Kazanchis IOM",
    "latitude": 8.9929521,
    "longitude": 38.7891201,
    "type": "establishment,point_of_interest",
    "Weekday": 4
  },
  {
    "CallTime": "8:05 AM",
    "CallTimeDate": "03/01/18 8:05",
    "StartAddress": "Repeblic",
    "latitude": 9.031519,
    "longitude": 38.7324324,
    "type": "route",
    "Weekday": 4
  },
  {
    "CallTime": "2:18 AM",
    "CallTimeDate": "02/09/18 2:18",
    "StartAddress": "Washngton Effoy",
    "latitude": 9.0023668,
    "longitude": 38.7800856,
    "type": "establishment,lodging,point_of_interest",
    "Weekday": 5
  },
  {
    "CallTime": "8:39 AM",
    "CallTimeDate": "03/01/18 8:39",
    "StartAddress": 22,
    "latitude": 9.0162255,
    "longitude": 38.7872096,
    "type": "street_address",
    "Weekday": 4
  },
  {
    "CallTime": "9:00 AM",
    "CallTimeDate": "03/01/18 9:00",
    "StartAddress": "TK Building",
    "latitude": 8.9884189,
    "longitude": 38.7914701,
    "type": "establishment,point_of_interest,shopping_mall",
    "Weekday": 4
  },
  {
    "CallTime": "9:03 AM",
    "CallTimeDate": "03/01/18 9:03",
    "StartAddress": "Bole",
    "latitude": 8.9831138,
    "longitude": 38.8100855,
    "type": "political,sublocality,sublocality_level_1",
    "Weekday": 4
  },
  {
    "CallTime": "9:15 AM",
    "CallTimeDate": "03/01/18 9:15",
    "StartAddress": "Emperial Hotel",
    "latitude": 8.9923288,
    "longitude": 38.7877679,
    "type": "establishment,lodging,point_of_interest",
    "Weekday": 4
  },
  {
    "CallTime": "9:24 AM",
    "CallTimeDate": "03/01/18 9:24",
    "StartAddress": "Zemen Bank",
    "latitude": 9.0169209,
    "longitude": 38.7667125,
    "type": "bank,establishment,finance,point_of_interest",
    "Weekday": 4
  },
  {
    "CallTime": "9:27 AM",
    "CallTimeDate": "03/01/18 9:27",
    "StartAddress": "Kera",
    "latitude": 8.9947488,
    "longitude": 38.7525257,
    "type": "neighborhood,political",
    "Weekday": 4
  },
  {
    "CallTime": "9:30 AM",
    "CallTimeDate": "03/01/18 9:30",
    "StartAddress": 22,
    "latitude": 9.0162255,
    "longitude": 38.7872096,
    "type": "street_address",
    "Weekday": 4
  },
  {
    "CallTime": "9:44 AM",
    "CallTimeDate": "03/01/18 9:44",
    "StartAddress": "Zemen Bank",
    "latitude": 9.0169209,
    "longitude": 38.7667125,
    "type": "bank,establishment,finance,point_of_interest",
    "Weekday": 4
  },
  {
    "CallTime": "9:44 AM",
    "CallTimeDate": "03/01/18 9:44",
    "StartAddress": "Bole Ednamall",
    "latitude": 8.9973888,
    "longitude": 38.7867701,
    "type": "establishment,point_of_interest,shopping_mall",
    "Weekday": 4
  },
  {
    "CallTime": "9:47 AM",
    "CallTimeDate": "03/01/18 9:47",
    "StartAddress": "Sarbet Mamocacha",
    "latitude": 8.9948436,
    "longitude": 38.778579,
    "type": "establishment,point_of_interest",
    "Weekday": 4
  },
  {
    "CallTime": "10:04 AM",
    "CallTimeDate": "03/01/18 10:04",
    "StartAddress": "Mafi City Mall",
    "latitude": 8.9963835,
    "longitude": 38.7876821,
    "type": "cafe,establishment,food,point_of_interest,shopping_mall",
    "Weekday": 4
  },
  {
    "CallTime": "10:10 AM",
    "CallTimeDate": "03/01/18 10:10",
    "StartAddress": "M.Flower",
    "latitude": 8.9957193,
    "longitude": 38.7666632,
    "type": "route",
    "Weekday": 4
  },
  {
    "CallTime": "10:11 AM",
    "CallTimeDate": "03/01/18 10:11",
    "StartAddress": "Summit",
    "latitude": 9.0027996,
    "longitude": 38.8528952,
    "type": "establishment,place_of_worship,point_of_interest",
    "Weekday": 4
  },
  {
    "CallTime": "10:43 AM",
    "CallTimeDate": "03/01/18 10:43",
    "StartAddress": "City Plaza",
    "latitude": 8.999332,
    "longitude": 38.770588,
    "type": "establishment,lodging,point_of_interest",
    "Weekday": 4
  },
  {
    "CallTime": "10:52 AM",
    "CallTimeDate": "03/01/18 10:52",
    "StartAddress": "Rebecca 22",
    "latitude": 9.0154785,
    "longitude": 38.7848024,
    "type": "establishment,finance,point_of_interest",
    "Weekday": 4
  },
  {
    "CallTime": "2:46 AM",
    "CallTimeDate": "02/05/18 2:46",
    "StartAddress": "Tesfa Kokeb",
    "latitude": 9.0140644,
    "longitude": 38.7337735,
    "type": "establishment,point_of_interest",
    "Weekday": 1
  },
  {
    "CallTime": "11:48 AM",
    "CallTimeDate": "03/01/18 11:48",
    "StartAddress": "Nazra Hotel",
    "latitude": 8.9932355,
    "longitude": 38.7664011,
    "type": "establishment,lodging,point_of_interest",
    "Weekday": 4
  },
  {
    "CallTime": "12:15 PM",
    "CallTimeDate": "03/01/18 12:15",
    "StartAddress": "Kazanchis",
    "latitude": 9.0165737,
    "longitude": 38.7760791,
    "type": "neighborhood,political",
    "Weekday": 4
  },
  {
    "CallTime": "12:45 PM",
    "CallTimeDate": "03/01/18 12:45",
    "StartAddress": "Meri",
    "latitude": 9.0195233,
    "longitude": 38.863153,
    "type": "establishment,mosque,place_of_worship,point_of_interest",
    "Weekday": 4
  },
  {
    "CallTime": "12:59 PM",
    "CallTimeDate": "03/01/18 12:59",
    "StartAddress": "Gerji",
    "latitude": 9.0062194,
    "longitude": 38.8231602,
    "type": "neighborhood,political",
    "Weekday": 4
  },
  {
    "CallTime": "2:50 AM",
    "CallTimeDate": "03/02/18 2:50",
    "StartAddress": "Yekabado Condominium",
    "latitude": 9.0665636,
    "longitude": 38.8702727,
    "type": "establishment,point_of_interest",
    "Weekday": 5
  },
  {
    "CallTime": "3:37 AM",
    "CallTimeDate": "03/02/18 3:37",
    "StartAddress": "Kazanchis",
    "latitude": 9.0165737,
    "longitude": 38.7760791,
    "type": "neighborhood,political",
    "Weekday": 5
  },
  {
    "CallTime": "4:00 AM",
    "CallTimeDate": "03/02/18 4:00",
    "StartAddress": "Summit Fird Bet",
    "latitude": 9.019046,
    "longitude": 38.770218,
    "type": "establishment,point_of_interest",
    "Weekday": 5
  },
  {
    "CallTime": "3:06 AM",
    "CallTimeDate": "02/23/18 3:06",
    "StartAddress": "Adwa Hotel Fit Lefit",
    "latitude": 9.023104,
    "longitude": 38.776582,
    "type": "establishment,food,point_of_interest,restaurant",
    "Weekday": 5
  },
  {
    "CallTime": "4:30 AM",
    "CallTimeDate": "03/02/18 4:30",
    "StartAddress": "Airport Domestic",
    "latitude": 8.9800689,
    "longitude": 38.7989319,
    "type": "airport,establishment,point_of_interest",
    "Weekday": 5
  },
  {
    "CallTime": "5:10 AM",
    "CallTimeDate": "03/02/18 5:10",
    "StartAddress": "Cmc",
    "latitude": 9.0082027,
    "longitude": 38.8510787,
    "type": "establishment,health,point_of_interest",
    "Weekday": 5
  },
  {
    "CallTime": "5:27 AM",
    "CallTimeDate": "03/02/18 5:27",
    "StartAddress": "Laparazian Restaurant",
    "latitude": 9.0322376,
    "longitude": 38.7528381,
    "type": "establishment,food,point_of_interest,restaurant",
    "Weekday": 5
  },
  {
    "CallTime": "5:28 AM",
    "CallTimeDate": "03/02/18 5:28",
    "StartAddress": "Mekanissa Yelam Hotel",
    "latitude": 8.9961676,
    "longitude": 38.7670129,
    "type": "establishment,lodging,point_of_interest",
    "Weekday": 5
  },
  {
    "CallTime": "5:32 AM",
    "CallTimeDate": "03/02/18 5:32",
    "StartAddress": "Ambasel",
    "latitude": 8.9855585,
    "longitude": 38.767268,
    "type": "premise",
    "Weekday": 5
  },
  {
    "CallTime": "5:50 AM",
    "CallTimeDate": "03/02/18 5:50",
    "StartAddress": "22 Rebecca Building",
    "latitude": 9.0154785,
    "longitude": 38.7848024,
    "type": "establishment,finance,point_of_interest",
    "Weekday": 5
  },
  {
    "CallTime": "11:00 AM",
    "CallTimeDate": "2/20/18 11:00",
    "StartAddress": "Tecnoserve",
    "latitude": 9.0154785,
    "longitude": 38.7848024,
    "type": "establishment,finance,point_of_interest",
    "Weekday": 2
  },
  {
    "CallTime": "5:21 AM",
    "CallTimeDate": "02/05/18 5:21",
    "StartAddress": "Tecnoserve",
    "latitude": 9.0154785,
    "longitude": 38.7848024,
    "type": "establishment,finance,point_of_interest",
    "Weekday": 1
  },
  {
    "CallTime": "5:58 AM",
    "CallTimeDate": "03/02/18 5:58",
    "StartAddress": "Agona Cinima Gotera",
    "latitude": 8.9900319,
    "longitude": 38.7849083,
    "type": "electronics_store,establishment,home_goods_store,movie_theater,point_of_interest,store",
    "Weekday": 5
  },
  {
    "CallTime": "6:01 AM",
    "CallTimeDate": "03/02/18 6:01",
    "StartAddress": "Civil Service Fit Lefit",
    "latitude": 9.0231499,
    "longitude": 38.832285,
    "type": "establishment,point_of_interest,university",
    "Weekday": 5
  },
  {
    "CallTime": "6:27 AM",
    "CallTimeDate": "03/02/18 6:27",
    "StartAddress": "Greek Club",
    "latitude": 9.0084889,
    "longitude": 38.7685824,
    "type": "establishment,food,point_of_interest,restaurant",
    "Weekday": 5
  },
  {
    "CallTime": "6:42 AM",
    "CallTimeDate": "03/02/18 6:42",
    "StartAddress": "Fresh Corner",
    "latitude": 9.0194522,
    "longitude": 38.8161488,
    "type": "establishment,food,grocery_or_supermarket,point_of_interest,store",
    "Weekday": 5
  },
  {
    "CallTime": "8:00 AM",
    "CallTimeDate": "03/02/18 8:00",
    "StartAddress": "Airport Domestic",
    "latitude": 8.9800689,
    "longitude": 38.7989319,
    "type": "airport,establishment,point_of_interest",
    "Weekday": 5
  },
  {
    "CallTime": "4:15 AM",
    "CallTimeDate": "02/07/18 4:15",
    "StartAddress": "Tecnoserve",
    "latitude": 9.0154785,
    "longitude": 38.7848024,
    "type": "establishment,finance,point_of_interest",
    "Weekday": 3
  },
  {
    "CallTime": "9:00 AM",
    "CallTimeDate": "03/02/18 9:00",
    "StartAddress": "Cmc Compound",
    "latitude": 9.0205438,
    "longitude": 38.8476442,
    "type": "establishment,point_of_interest",
    "Weekday": 5
  },
  {
    "CallTime": "10:08 AM",
    "CallTimeDate": "03/02/18 10:08",
    "StartAddress": "Bole Edna",
    "latitude": 8.9973888,
    "longitude": 38.7867701,
    "type": "establishment,point_of_interest,shopping_mall",
    "Weekday": 5
  },
  {
    "CallTime": "10:31 AM",
    "CallTimeDate": "03/02/18 10:31",
    "StartAddress": 22,
    "latitude": 9.0162255,
    "longitude": 38.7872096,
    "type": "street_address",
    "Weekday": 5
  },
  {
    "CallTime": "10:52 AM",
    "CallTimeDate": "03/02/18 10:52",
    "StartAddress": "Megenagna",
    "latitude": 9.0204692,
    "longitude": 38.8024029,
    "type": "bus_station,establishment,point_of_interest,transit_station",
    "Weekday": 5
  },
  {
    "CallTime": "10:58 AM",
    "CallTimeDate": "03/02/18 10:58",
    "StartAddress": "Alem Bank",
    "latitude": 8.9939977,
    "longitude": 38.7903937,
    "type": "route",
    "Weekday": 5
  },
  {
    "CallTime": "4:21 AM",
    "CallTimeDate": "02/08/18 4:21",
    "StartAddress": "Tecnoserve",
    "latitude": 9.0154785,
    "longitude": 38.7848024,
    "type": "establishment,finance,point_of_interest",
    "Weekday": 4
  },
  {
    "CallTime": "2:58 AM",
    "CallTimeDate": "2/13/18 2:58",
    "StartAddress": "Bole",
    "latitude": 8.9831138,
    "longitude": 38.8100855,
    "type": "political,sublocality,sublocality_level_1",
    "Weekday": 2
  },
  {
    "CallTime": "3:18 AM",
    "CallTimeDate": "2/13/18 3:18",
    "StartAddress": 22,
    "latitude": 9.0162255,
    "longitude": 38.7872096,
    "type": "street_address",
    "Weekday": 2
  },
  {
    "CallTime": "5:15 AM",
    "CallTimeDate": "02/08/18 5:15",
    "StartAddress": "Tecnoserve",
    "latitude": 9.0154785,
    "longitude": 38.7848024,
    "type": "establishment,finance,point_of_interest",
    "Weekday": 4
  },
  {
    "CallTime": "7:30 AM",
    "CallTimeDate": "2/13/18 7:30",
    "StartAddress": 22,
    "latitude": 9.0162255,
    "longitude": 38.7872096,
    "type": "street_address",
    "Weekday": 2
  },
  {
    "CallTime": "9:30 AM",
    "CallTimeDate": "2/13/18 9:30",
    "StartAddress": "Megenagna",
    "latitude": 9.0204692,
    "longitude": 38.8024029,
    "type": "bus_station,establishment,point_of_interest,transit_station",
    "Weekday": 2
  },
  {
    "CallTime": "10:40 AM",
    "CallTimeDate": "2/13/18 10:40",
    "StartAddress": "Kaleb Hotel",
    "latitude": 8.995587,
    "longitude": 38.786024,
    "type": "establishment,lodging,point_of_interest",
    "Weekday": 2
  },
  {
    "CallTime": "3:20 AM",
    "CallTimeDate": "2/14/18 3:20",
    "StartAddress": "6kilo University",
    "latitude": 9.0438158,
    "longitude": 38.7611979,
    "type": "establishment,point_of_interest",
    "Weekday": 3
  },
  {
    "CallTime": "4:28 AM",
    "CallTimeDate": "03/01/18 4:28",
    "StartAddress": "Tecno Office",
    "latitude": 9.0154785,
    "longitude": 38.7848024,
    "type": "establishment,finance,point_of_interest",
    "Weekday": 4
  },
  {
    "CallTime": "4:06 AM",
    "CallTimeDate": "2/14/18 4:06",
    "StartAddress": "MKS Restaurant",
    "latitude": 8.9995109,
    "longitude": 38.7851796,
    "type": "establishment,food,point_of_interest,restaurant",
    "Weekday": 3
  },
  {
    "CallTime": "4:55 AM",
    "CallTimeDate": "2/14/18 4:55",
    "StartAddress": "Ramada Hotel",
    "latitude": 8.991897,
    "longitude": 38.782873,
    "type": "establishment,lodging,point_of_interest",
    "Weekday": 3
  },
  {
    "CallTime": "7:28 AM",
    "CallTimeDate": "03/01/18 7:28",
    "StartAddress": "Tecno Office",
    "latitude": 9.0154785,
    "longitude": 38.7848024,
    "type": "establishment,finance,point_of_interest",
    "Weekday": 4
  },
  {
    "CallTime": "8:45 AM",
    "CallTimeDate": "2/14/18 8:45",
    "StartAddress": "Bole",
    "latitude": 8.9831138,
    "longitude": 38.8100855,
    "type": "political,sublocality,sublocality_level_1",
    "Weekday": 3
  },
  {
    "CallTime": "2:15 AM",
    "CallTimeDate": "2/15/18 2:15",
    "StartAddress": 22,
    "latitude": 9.0162255,
    "longitude": 38.7872096,
    "type": "street_address",
    "Weekday": 4
  },
  {
    "CallTime": "10:10 AM",
    "CallTimeDate": "2/15/18 10:10",
    "StartAddress": "6kilo University",
    "latitude": 9.0438158,
    "longitude": 38.7611979,
    "type": "establishment,point_of_interest",
    "Weekday": 4
  },
  {
    "CallTime": "12:45 PM",
    "CallTimeDate": "2/15/18 12:45",
    "StartAddress": "Washington Hotel",
    "latitude": 9.0023668,
    "longitude": 38.7800856,
    "type": "establishment,lodging,point_of_interest",
    "Weekday": 4
  },
  {
    "CallTime": "3:49 AM",
    "CallTimeDate": "2/16/18 3:49",
    "StartAddress": "Summit",
    "latitude": 9.0027996,
    "longitude": 38.8528952,
    "type": "establishment,place_of_worship,point_of_interest",
    "Weekday": 5
  },
  {
    "CallTime": "2:12 AM",
    "CallTimeDate": "2/21/18 2:12",
    "StartAddress": "Tecno Office",
    "latitude": 9.0154785,
    "longitude": 38.7848024,
    "type": "establishment,finance,point_of_interest",
    "Weekday": 3
  },
  {
    "CallTime": "2:36 AM",
    "CallTimeDate": "2/21/18 2:36",
    "StartAddress": "Tecno Office",
    "latitude": 9.0154785,
    "longitude": 38.7848024,
    "type": "establishment,finance,point_of_interest",
    "Weekday": 3
  },
  {
    "CallTime": "2:39 AM",
    "CallTimeDate": "2/21/18 2:39",
    "StartAddress": "Tecno Office",
    "latitude": 9.0154785,
    "longitude": 38.7848024,
    "type": "establishment,finance,point_of_interest",
    "Weekday": 3
  },
  {
    "CallTime": "1:30 AM",
    "CallTimeDate": "2/17/18 1:30",
    "StartAddress": "Summit Pepsi",
    "latitude": 9.0040823,
    "longitude": 38.8538752,
    "type": "establishment,point_of_interest,premise",
    "Weekday": 6
  },
  {
    "CallTime": "3:06 AM",
    "CallTimeDate": "2/17/18 3:06",
    "StartAddress": "Cmc",
    "latitude": 9.0082027,
    "longitude": 38.8510787,
    "type": "establishment,health,point_of_interest",
    "Weekday": 6
  },
  {
    "CallTime": "2:38 AM",
    "CallTimeDate": "2/19/18 2:38",
    "StartAddress": "Lebu Varnero",
    "latitude": 8.9479918,
    "longitude": 38.7283719,
    "type": "establishment,point_of_interest",
    "Weekday": 1
  },
  {
    "CallTime": "2:40 AM",
    "CallTimeDate": "2/19/18 2:40",
    "StartAddress": "Bole Desalech",
    "latitude": 8.9875174,
    "longitude": 38.7885786,
    "type": "establishment,food,point_of_interest,restaurant",
    "Weekday": 1
  },
  {
    "CallTime": "2:42 AM",
    "CallTimeDate": "2/19/18 2:42",
    "StartAddress": "Rebecca Building",
    "latitude": 9.0155921,
    "longitude": 38.7847956,
    "type": "premise",
    "Weekday": 1
  },
  {
    "CallTime": "4:19 AM",
    "CallTimeDate": "2/19/18 4:19",
    "StartAddress": "22 Rebecca Building",
    "latitude": 9.0154785,
    "longitude": 38.7848024,
    "type": "establishment,finance,point_of_interest",
    "Weekday": 1
  },
  {
    "CallTime": "4:51 AM",
    "CallTimeDate": "2/21/18 4:51",
    "StartAddress": "Tecno Office",
    "latitude": 9.0154785,
    "longitude": 38.7848024,
    "type": "establishment,finance,point_of_interest",
    "Weekday": 3
  },
  {
    "CallTime": "6:27 AM",
    "CallTimeDate": "2/19/18 6:27",
    "StartAddress": "Betel Total",
    "latitude": 9.0041999,
    "longitude": 38.6888748,
    "type": "establishment,gas_station,point_of_interest",
    "Weekday": 1
  },
  {
    "CallTime": "7:20 AM",
    "CallTimeDate": "2/19/18 7:20",
    "StartAddress": "22 Rebecca Building",
    "latitude": 9.0154785,
    "longitude": 38.7848024,
    "type": "establishment,finance,point_of_interest",
    "Weekday": 1
  },
  {
    "CallTime": "10:45 AM",
    "CallTimeDate": "2/19/18 10:45",
    "StartAddress": "Airport",
    "latitude": 8.9800689,
    "longitude": 38.7989319,
    "type": "airport,establishment,point_of_interest",
    "Weekday": 1
  },
  {
    "CallTime": "2:56 AM",
    "CallTimeDate": "2/20/18 2:56",
    "StartAddress": "Olompia",
    "latitude": 9.0043588,
    "longitude": 38.7680892,
    "type": "bus_station,establishment,point_of_interest,transit_station",
    "Weekday": 2
  },
  {
    "CallTime": "9:00 AM",
    "CallTimeDate": "2/20/18 9:00",
    "StartAddress": 22,
    "latitude": 9.0162255,
    "longitude": 38.7872096,
    "type": "street_address",
    "Weekday": 2
  },
  {
    "CallTime": "5:08 AM",
    "CallTimeDate": "2/22/18 5:08",
    "StartAddress": "Tecno Office",
    "latitude": 9.0154785,
    "longitude": 38.7848024,
    "type": "establishment,finance,point_of_interest",
    "Weekday": 4
  },
  {
    "CallTime": "3:40 AM",
    "CallTimeDate": "2/23/18 3:40",
    "StartAddress": "Tecno Office",
    "latitude": 9.0154785,
    "longitude": 38.7848024,
    "type": "establishment,finance,point_of_interest",
    "Weekday": 5
  },
  {
    "CallTime": "10:04 AM",
    "CallTimeDate": "02/06/18 10:04",
    "StartAddress": "Tecno Office",
    "latitude": 9.0154785,
    "longitude": 38.7848024,
    "type": "establishment,finance,point_of_interest",
    "Weekday": 2
  },
  {
    "CallTime": "3:24 AM",
    "CallTimeDate": "02/09/18 3:24",
    "StartAddress": "Tecno Office",
    "latitude": 9.0154785,
    "longitude": 38.7848024,
    "type": "establishment,finance,point_of_interest",
    "Weekday": 5
  },
  {
    "CallTime": "2:47 AM",
    "CallTimeDate": "2/21/18 2:47",
    "StartAddress": 22,
    "latitude": 9.0162255,
    "longitude": 38.7872096,
    "type": "street_address",
    "Weekday": 3
  },
  {
    "CallTime": "3:38 AM",
    "CallTimeDate": "2/21/18 3:38",
    "StartAddress": 22,
    "latitude": 9.0162255,
    "longitude": 38.7872096,
    "type": "street_address",
    "Weekday": 3
  },
  {
    "CallTime": "8:00 AM",
    "CallTimeDate": "03/02/18 8:00",
    "StartAddress": "Sunshine Meri loke",
    "latitude": 9.0331037,
    "longitude": 38.8504242,
    "type": "establishment,point_of_interest",
    "Weekday": 5
  },
  {
    "CallTime": "5:30 AM",
    "CallTimeDate": "2/21/18 5:30",
    "StartAddress": 22,
    "latitude": 9.0162255,
    "longitude": 38.7872096,
    "type": "street_address",
    "Weekday": 3
  },
  {
    "CallTime": "1:44 AM",
    "CallTimeDate": "02/10/18 1:44",
    "StartAddress": "Summit Fiyel Bet",
    "latitude": 9.0096797,
    "longitude": 38.8503407,
    "type": "establishment,food,point_of_interest,restaurant",
    "Weekday": 6
  },
  {
    "CallTime": "2:30 AM",
    "CallTimeDate": "2/22/18 2:30",
    "StartAddress": "Hilton",
    "latitude": 9.018495,
    "longitude": 38.76496,
    "type": "establishment,lodging,point_of_interest",
    "Weekday": 4
  },
  {
    "CallTime": "2:30 AM",
    "CallTimeDate": "2/22/18 2:30",
    "StartAddress": "Hilton",
    "latitude": 9.018495,
    "longitude": 38.76496,
    "type": "establishment,lodging,point_of_interest",
    "Weekday": 4
  },
  {
    "CallTime": "2:30 AM",
    "CallTimeDate": "2/22/18 2:30",
    "StartAddress": "Hilton",
    "latitude": 9.018495,
    "longitude": 38.76496,
    "type": "establishment,lodging,point_of_interest",
    "Weekday": 4
  },
  {
    "CallTime": "3:58 AM",
    "CallTimeDate": "2/22/18 3:58",
    "StartAddress": "Cmc Civil Service University",
    "latitude": 9.0231499,
    "longitude": 38.832285,
    "type": "establishment,point_of_interest,university",
    "Weekday": 4
  },
  {
    "CallTime": "2:56 AM",
    "CallTimeDate": "02/10/18 2:56",
    "StartAddress": "Summit Fiyel Bet",
    "latitude": 9.0096797,
    "longitude": 38.8503407,
    "type": "establishment,food,point_of_interest,restaurant",
    "Weekday": 6
  },
  {
    "CallTime": "5:08 AM",
    "CallTimeDate": "2/22/18 5:08",
    "StartAddress": "22 Rebecca",
    "latitude": 9.0154785,
    "longitude": 38.7848024,
    "type": "establishment,finance,point_of_interest",
    "Weekday": 4
  },
  {
    "CallTime": "7:50 AM",
    "CallTimeDate": "2/22/18 7:50",
    "StartAddress": "Taytu Hotel",
    "latitude": 9.0307218,
    "longitude": 38.7542958,
    "type": "establishment,lodging,point_of_interest",
    "Weekday": 4
  },
  {
    "CallTime": "2:00 AM",
    "CallTimeDate": "2/23/18 2:00",
    "StartAddress": "Summit",
    "latitude": 9.0027996,
    "longitude": 38.8528952,
    "type": "establishment,place_of_worship,point_of_interest",
    "Weekday": 5
  },
  {
    "CallTime": "3:15 AM",
    "CallTimeDate": "2/23/18 3:15",
    "StartAddress": 22,
    "latitude": 9.0162255,
    "longitude": 38.7872096,
    "type": "street_address",
    "Weekday": 5
  },
  {
    "CallTime": "3:08 AM",
    "CallTimeDate": "02/10/18 3:08",
    "StartAddress": "Summit Fiyel Bet",
    "latitude": 9.0096797,
    "longitude": 38.8503407,
    "type": "establishment,food,point_of_interest,restaurant",
    "Weekday": 6
  },
  {
    "CallTime": "7:40 AM",
    "CallTimeDate": "2/23/18 7:40",
    "StartAddress": "Airport",
    "latitude": 8.9800689,
    "longitude": 38.7989319,
    "type": "airport,establishment,point_of_interest",
    "Weekday": 5
  },
  {
    "CallTime": "1:15 AM",
    "CallTimeDate": "2/24/18 1:15",
    "StartAddress": "Bole Caldis Caffe",
    "latitude": 8.9951953,
    "longitude": 38.7389638,
    "type": "cafe,establishment,food,point_of_interest",
    "Weekday": 6
  },
  {
    "CallTime": "3:50 AM",
    "CallTimeDate": "2/24/18 3:50",
    "StartAddress": "Summit",
    "latitude": 9.0027996,
    "longitude": 38.8528952,
    "type": "establishment,place_of_worship,point_of_interest",
    "Weekday": 6
  },
  {
    "CallTime": "3:04 AM",
    "CallTimeDate": "2/25/18 3:04",
    "StartAddress": "Civil Service",
    "latitude": 9.0231499,
    "longitude": 38.832285,
    "type": "establishment,point_of_interest,university",
    "Weekday": 0
  },
  {
    "CallTime": "3:28 AM",
    "CallTimeDate": "2/25/18 3:28",
    "StartAddress": "Airport",
    "latitude": 8.9800689,
    "longitude": 38.7989319,
    "type": "airport,establishment,point_of_interest",
    "Weekday": 0
  },
  {
    "CallTime": "6:09 AM",
    "CallTimeDate": "02/06/18 6:09",
    "StartAddress": "Summit Figa",
    "latitude": 9.0040823,
    "longitude": 38.8538752,
    "type": "establishment,point_of_interest,premise",
    "Weekday": 2
  },
  {
    "CallTime": "1:00 AM",
    "CallTimeDate": "2/26/18 1:00",
    "StartAddress": "Rebecca Building",
    "latitude": 9.0155921,
    "longitude": 38.7847956,
    "type": "premise",
    "Weekday": 1
  },
  {
    "CallTime": "1:14 AM",
    "CallTimeDate": "2/26/18 1:14",
    "StartAddress": "Semen Hotel",
    "latitude": 9.0440595,
    "longitude": 38.7490502,
    "type": "establishment,lodging,point_of_interest",
    "Weekday": 1
  },
  {
    "CallTime": "1:55 AM",
    "CallTimeDate": "2/26/18 1:55",
    "StartAddress": "Bole Dessalech Kitfo",
    "latitude": 8.9875174,
    "longitude": 38.7885786,
    "type": "establishment,food,point_of_interest,restaurant",
    "Weekday": 1
  },
  {
    "CallTime": "4:06 AM",
    "CallTimeDate": "2/26/18 4:06",
    "StartAddress": "Lebu Varnero",
    "latitude": 8.9479918,
    "longitude": 38.7283719,
    "type": "establishment,point_of_interest",
    "Weekday": 1
  },
  {
    "CallTime": "4:46 AM",
    "CallTimeDate": "2/26/18 4:46",
    "StartAddress": 22,
    "latitude": 9.0162255,
    "longitude": 38.7872096,
    "type": "street_address",
    "Weekday": 1
  },
  {
    "CallTime": "7:50 AM",
    "CallTimeDate": "2/26/18 7:50",
    "StartAddress": "Rebecca Building",
    "latitude": 9.0155921,
    "longitude": 38.7847956,
    "type": "premise",
    "Weekday": 1
  },
  {
    "CallTime": "1:40 AM",
    "CallTimeDate": "2/27/18 1:40",
    "StartAddress": "Piassa",
    "latitude": 9.0371838,
    "longitude": 38.7551432,
    "type": "neighborhood,political",
    "Weekday": 2
  },
  {
    "CallTime": "1:50 AM",
    "CallTimeDate": "2/27/18 1:50",
    "StartAddress": "22 Rebecca Bbuilding",
    "latitude": 9.0154785,
    "longitude": 38.7848024,
    "type": "establishment,finance,point_of_interest",
    "Weekday": 2
  },
  {
    "CallTime": "2:00 AM",
    "CallTimeDate": "2/27/18 2:00",
    "StartAddress": "22 Rebecca",
    "latitude": 9.0154785,
    "longitude": 38.7848024,
    "type": "establishment,finance,point_of_interest",
    "Weekday": 2
  },
  {
    "CallTime": "4:29 AM",
    "CallTimeDate": "2/27/18 4:29",
    "StartAddress": "Gotera",
    "latitude": 8.9847827,
    "longitude": 38.7557975,
    "type": "establishment,point_of_interest",
    "Weekday": 2
  },
  {
    "CallTime": "3:39 AM",
    "CallTimeDate": "02/10/18 3:39",
    "StartAddress": "Summit Dawit Kitfo",
    "latitude": 9.0100176,
    "longitude": 38.772033,
    "type": "establishment,food,grocery_or_supermarket,point_of_interest,store,supermarket",
    "Weekday": 6
  },
  {
    "CallTime": "7:44 AM",
    "CallTimeDate": "2/27/18 7:44",
    "StartAddress": "Bole Ruwanda",
    "latitude": 8.9869641,
    "longitude": 38.7806332,
    "type": "establishment,point_of_interest,taxi_stand",
    "Weekday": 2
  },
  {
    "CallTime": "10:20 AM",
    "CallTimeDate": "02/27/18 10:20",
    "StartAddress": "Sheraton",
    "latitude": 9.015466,
    "longitude": 38.769788,
    "type": "establishment,lodging,point_of_interest",
    "Weekday": 2
  },
  {
    "CallTime": "2:05 AM",
    "CallTimeDate": "02/28/18  2:05",
    "StartAddress": "Semen Hotel",
    "latitude": 9.0440595,
    "longitude": 38.7490502,
    "type": "establishment,lodging,point_of_interest",
    "Weekday": 3
  },
  {
    "CallTime": "2:10 AM",
    "CallTimeDate": "02/28/18  2:10",
    "StartAddress": "Office 22",
    "latitude": 9.0161401,
    "longitude": 38.7906744,
    "type": "establishment,local_government_office,point_of_interest",
    "Weekday": 3
  },
  {
    "CallTime": "3:28 AM",
    "CallTimeDate": "02/28/18  3:28",
    "StartAddress": "22 Rebecca Building",
    "latitude": 9.0154785,
    "longitude": 38.7848024,
    "type": "establishment,finance,point_of_interest",
    "Weekday": 3
  },
  {
    "CallTime": "4:09 AM",
    "CallTimeDate": "02/28/18  4:09",
    "StartAddress": 22,
    "latitude": 9.0162255,
    "longitude": 38.7872096,
    "type": "street_address",
    "Weekday": 3
  },
  {
    "CallTime": "4:30 AM",
    "CallTimeDate": "02/28/18  4:30",
    "StartAddress": 22,
    "latitude": 9.0162255,
    "longitude": 38.7872096,
    "type": "street_address",
    "Weekday": 3
  },
  {
    "CallTime": "5:18 AM",
    "CallTimeDate": "02/28/18  5:18",
    "StartAddress": 22,
    "latitude": 9.0162255,
    "longitude": 38.7872096,
    "type": "street_address",
    "Weekday": 3
  },
  {
    "CallTime": "8:08 AM",
    "CallTimeDate": "02/28/18  8:08",
    "StartAddress": 22,
    "latitude": 9.0162255,
    "longitude": 38.7872096,
    "type": "street_address",
    "Weekday": 3
  },
  {
    "CallTime": "4:15 AM",
    "CallTimeDate": "03/01/18 4:15",
    "StartAddress": "Sumale Tera T/haimanot",
    "latitude": 9.0310984,
    "longitude": 38.7442477,
    "type": "establishment,point_of_interest",
    "Weekday": 4
  },
  {
    "CallTime": "1:07 AM",
    "CallTimeDate": "02/03/18 1:07",
    "StartAddress": "Greek Club Olompia",
    "latitude": 9.0084889,
    "longitude": 38.7685824,
    "type": "establishment,food,point_of_interest,restaurant",
    "Weekday": 6
  },
  {
    "CallTime": "1:10 AM",
    "CallTimeDate": "02/03/18 1:10",
    "StartAddress": "Kazanchis Nib Bank",
    "latitude": 9.0131957,
    "longitude": 38.7696425,
    "type": "bank,establishment,finance,point_of_interest",
    "Weekday": 6
  },
  {
    "CallTime": "1:15 AM",
    "CallTimeDate": "02/03/18 1:15",
    "StartAddress": "Ednamall",
    "latitude": 8.9973888,
    "longitude": 38.7867701,
    "type": "establishment,point_of_interest,shopping_mall",
    "Weekday": 6
  },
  {
    "CallTime": "8:52 AM",
    "CallTimeDate": "02/08/18 8:52",
    "StartAddress": "Sintayehu Building",
    "latitude": 8.991288,
    "longitude": 38.7824698,
    "type": "establishment,neighborhood,point_of_interest,political",
    "Weekday": 4
  },
  {
    "CallTime": "1:55 AM",
    "CallTimeDate": "02/03/18 1:55",
    "StartAddress": "Sapphire",
    "latitude": 9.0001579,
    "longitude": 38.7833704,
    "type": "establishment,lodging,point_of_interest",
    "Weekday": 6
  },
  {
    "CallTime": "6:39 AM",
    "CallTimeDate": "02/10/18 6:39",
    "StartAddress": "Signal Melitery Compound",
    "latitude": 9.0356242,
    "longitude": 38.7586906,
    "type": "establishment,point_of_interest,premise",
    "Weekday": 6
  },
  {
    "CallTime": "2:31 AM",
    "CallTimeDate": "02/03/18 2:31",
    "StartAddress": "Mimi Addis",
    "latitude": 8.9889325,
    "longitude": 38.7884491,
    "type": "establishment,food,point_of_interest,restaurant",
    "Weekday": 6
  },
  {
    "CallTime": "3:25 AM",
    "CallTimeDate": "02/03/18 3:25",
    "StartAddress": "Luftanza Urael",
    "latitude": 9.0071812,
    "longitude": 38.7764292,
    "type": "establishment,point_of_interest,travel_agency",
    "Weekday": 6
  },
  {
    "CallTime": "3:20 AM",
    "CallTimeDate": "02/04/18 3:20",
    "StartAddress": "Signal",
    "latitude": 9.0356242,
    "longitude": 38.7586906,
    "type": "establishment,point_of_interest,premise",
    "Weekday": 0
  },
  {
    "CallTime": "3:45 AM",
    "CallTimeDate": "02/03/18 3:45",
    "StartAddress": "Ramada Hotel",
    "latitude": 8.991897,
    "longitude": 38.782873,
    "type": "establishment,lodging,point_of_interest",
    "Weekday": 6
  },
  {
    "CallTime": "3:56 AM",
    "CallTimeDate": "02/03/18 3:56",
    "StartAddress": "Golagul",
    "latitude": 9.0154348,
    "longitude": 38.7869515,
    "type": "establishment,parking,point_of_interest",
    "Weekday": 6
  },
  {
    "CallTime": "5:04 AM",
    "CallTimeDate": "02/03/18 5:04",
    "StartAddress": "Bole",
    "latitude": 8.9831138,
    "longitude": 38.8100855,
    "type": "political,sublocality,sublocality_level_1",
    "Weekday": 6
  },
  {
    "CallTime": "5:17 AM",
    "CallTimeDate": "02/03/18 5:17",
    "StartAddress": "Gerji",
    "latitude": 9.0062194,
    "longitude": 38.8231602,
    "type": "neighborhood,political",
    "Weekday": 6
  },
  {
    "CallTime": "5:20 AM",
    "CallTimeDate": "02/03/18 5:20",
    "StartAddress": "Capital",
    "latitude": 8.9806034,
    "longitude": 38.7577605,
    "type": "locality,political",
    "Weekday": 6
  },
  {
    "CallTime": "5:30 AM",
    "CallTimeDate": "02/03/18 5:30",
    "StartAddress": "Kuas Meda",
    "latitude": 8.9582474,
    "longitude": 38.7710094,
    "type": "establishment,point_of_interest",
    "Weekday": 6
  },
  {
    "CallTime": "5:30 AM",
    "CallTimeDate": "02/03/18 5:30",
    "StartAddress": "Elizer Tour And Travel",
    "latitude": 9.014111,
    "longitude": 38.78063,
    "type": "establishment,point_of_interest,travel_agency",
    "Weekday": 6
  },
  {
    "CallTime": "5:40 AM",
    "CallTimeDate": "02/03/18 5:40",
    "StartAddress": "",
    "latitude": 9.014111,
    "longitude": 38.78063,
    "type": "establishment,point_of_interest,travel_agency",
    "Weekday": 6
  },
  {
    "CallTime": "5:50 AM",
    "CallTimeDate": "02/03/18 5:50",
    "StartAddress": "Boston Day Spa",
    "latitude": 8.9907495,
    "longitude": 38.7837711,
    "type": "establishment,point_of_interest,spa",
    "Weekday": 6
  },
  {
    "CallTime": "5:50 AM",
    "CallTimeDate": "02/03/18 5:50",
    "StartAddress": "Ramada",
    "latitude": 8.991897,
    "longitude": 38.782873,
    "type": "establishment,lodging,point_of_interest",
    "Weekday": 6
  },
  {
    "CallTime": "6:00 AM",
    "CallTimeDate": "02/03/18 6:00",
    "StartAddress": "Republic Club",
    "latitude": 9.0100532,
    "longitude": 38.7807546,
    "type": "establishment,night_club,point_of_interest",
    "Weekday": 6
  },
  {
    "CallTime": "3:54 AM",
    "CallTimeDate": "02/04/18 3:54",
    "StartAddress": "Signal",
    "latitude": 9.0356242,
    "longitude": 38.7586906,
    "type": "establishment,point_of_interest,premise",
    "Weekday": 0
  },
  {
    "CallTime": "6:25 AM",
    "CallTimeDate": "02/03/18 6:25",
    "StartAddress": "Gerji Flint Stone Homes",
    "latitude": 9.0008487,
    "longitude": 38.8367987,
    "type": "establishment,point_of_interest",
    "Weekday": 6
  },
  {
    "CallTime": "4:13 AM",
    "CallTimeDate": "02/05/18 4:13",
    "StartAddress": "Signal",
    "latitude": 9.0356242,
    "longitude": 38.7586906,
    "type": "establishment,point_of_interest,premise",
    "Weekday": 1
  },
  {
    "CallTime": "6:37 AM",
    "CallTimeDate": "02/03/18 6:37",
    "StartAddress": "Sunshine Gerji",
    "latitude": 8.9943122,
    "longitude": 38.8115565,
    "type": "establishment,point_of_interest",
    "Weekday": 6
  },
  {
    "CallTime": "7:10 AM",
    "CallTimeDate": "02/03/18 7:10",
    "StartAddress": "Kokeb Building",
    "latitude": 9.0184777,
    "longitude": 38.6985784,
    "type": "premise",
    "Weekday": 6
  },
  {
    "CallTime": "11:00 AM",
    "CallTimeDate": "02/05/18 11:00",
    "StartAddress": "Signal",
    "latitude": 9.0356242,
    "longitude": 38.7586906,
    "type": "establishment,point_of_interest,premise",
    "Weekday": 1
  },
  {
    "CallTime": "1:38 AM",
    "CallTimeDate": "02/09/18 1:38",
    "StartAddress": "Signal",
    "latitude": 9.0356242,
    "longitude": 38.7586906,
    "type": "establishment,point_of_interest,premise",
    "Weekday": 5
  },
  {
    "CallTime": "7:58 AM",
    "CallTimeDate": "02/03/18 7:58",
    "StartAddress": "Summit Dibora School",
    "latitude": 9.0179355,
    "longitude": 38.8473129,
    "type": "establishment,point_of_interest,school",
    "Weekday": 6
  },
  {
    "CallTime": "8:00 AM",
    "CallTimeDate": "02/03/18 8:00",
    "StartAddress": "Tele",
    "latitude": 8.9939977,
    "longitude": 38.7903937,
    "type": "route",
    "Weekday": 6
  },
  {
    "CallTime": "8:42 AM",
    "CallTimeDate": "02/03/18 8:42",
    "StartAddress": "Washington Hotel",
    "latitude": 9.0023668,
    "longitude": 38.7800856,
    "type": "establishment,lodging,point_of_interest",
    "Weekday": 6
  },
  {
    "CallTime": "8:50 AM",
    "CallTimeDate": "02/03/18 8:50",
    "StartAddress": "Getu Commercial",
    "latitude": 9.0023505,
    "longitude": 38.7694194,
    "type": "establishment,point_of_interest",
    "Weekday": 6
  },
  {
    "CallTime": "9:05 AM",
    "CallTimeDate": "02/03/18 9:05",
    "StartAddress": "5Kilo",
    "latitude": 9.040386,
    "longitude": 38.7633221,
    "type": "establishment,point_of_interest,university",
    "Weekday": 6
  },
  {
    "CallTime": "9:05 AM",
    "CallTimeDate": "02/03/18 9:05",
    "StartAddress": "Say Cake",
    "latitude": 8.9916559,
    "longitude": 38.7828702,
    "type": "bakery,establishment,food,point_of_interest,store",
    "Weekday": 6
  },
  {
    "CallTime": "9:18 AM",
    "CallTimeDate": "02/03/18 9:18",
    "StartAddress": "Radisun",
    "latitude": 9.016298,
    "longitude": 38.767855,
    "type": "establishment,lodging,point_of_interest",
    "Weekday": 6
  },
  {
    "CallTime": "9:30 AM",
    "CallTimeDate": "02/03/18 9:30",
    "StartAddress": "Bole Mini",
    "latitude": 8.9889325,
    "longitude": 38.7884491,
    "type": "establishment,food,point_of_interest,restaurant",
    "Weekday": 6
  },
  {
    "CallTime": "9:42 AM",
    "CallTimeDate": "02/03/18 9:42",
    "StartAddress": "Ramada",
    "latitude": 8.991897,
    "longitude": 38.782873,
    "type": "establishment,lodging,point_of_interest",
    "Weekday": 6
  },
  {
    "CallTime": "9:52 AM",
    "CallTimeDate": "02/03/18 9:52",
    "StartAddress": "Gerji Gelani Caf??_",
    "latitude": 9.0067602,
    "longitude": 38.8177381,
    "type": "cafe,establishment,food,point_of_interest,store",
    "Weekday": 6
  },
  {
    "CallTime": "10:16 AM",
    "CallTimeDate": "02/03/18 10:16",
    "StartAddress": "Bole Homes Tomoca",
    "latitude": 8.9948787,
    "longitude": 38.7905527,
    "type": "cafe,establishment,food,point_of_interest,store",
    "Weekday": 6
  },
  {
    "CallTime": "10:20 AM",
    "CallTimeDate": "02/03/18 10:20",
    "StartAddress": 24,
    "latitude": 8.9917075,
    "longitude": 38.7878232,
    "type": "route",
    "Weekday": 6
  },
  {
    "CallTime": "10:24 AM",
    "CallTimeDate": "02/03/18 10:24",
    "StartAddress": "Goro",
    "latitude": 8.9975378,
    "longitude": 38.8296965,
    "type": "locality,political",
    "Weekday": 6
  },
  {
    "CallTime": "3:49 AM",
    "CallTimeDate": "02/10/18 3:49",
    "StartAddress": "Shola Park Adarash",
    "latitude": 9.0039078,
    "longitude": 38.7840918,
    "type": "establishment,park,point_of_interest,premise",
    "Weekday": 6
  },
  {
    "CallTime": "10:58 AM",
    "CallTimeDate": "02/03/18 10:58",
    "StartAddress": "Ras Amba Hotel",
    "latitude": 9.0316722,
    "longitude": 38.77107,
    "type": "establishment,lodging,point_of_interest",
    "Weekday": 6
  },
  {
    "CallTime": "11:00 AM",
    "CallTimeDate": "02/03/18 11:00",
    "StartAddress": "Cmc Compound",
    "latitude": 9.0205438,
    "longitude": 38.8476442,
    "type": "establishment,point_of_interest",
    "Weekday": 6
  },
  {
    "CallTime": "11:08 AM",
    "CallTimeDate": "02/03/18 11:08",
    "StartAddress": "Soreti Spa",
    "latitude": 8.9954105,
    "longitude": 38.7759849,
    "type": "establishment,point_of_interest,spa",
    "Weekday": 6
  },
  {
    "CallTime": "2:44 AM",
    "CallTimeDate": "03/01/18 2:44",
    "StartAddress": "Shala Park Awash Bank",
    "latitude": 9.0039078,
    "longitude": 38.7840918,
    "type": "bank,establishment,finance,point_of_interest",
    "Weekday": 4
  },
  {
    "CallTime": "11:28 AM",
    "CallTimeDate": "02/03/18 11:28",
    "StartAddress": "Sheraton Hotel",
    "latitude": 9.015466,
    "longitude": 38.769788,
    "type": "establishment,lodging,point_of_interest",
    "Weekday": 6
  },
  {
    "CallTime": "12:00 PM",
    "CallTimeDate": "02/03/18 12:00",
    "StartAddress": "Flint Stone Homes Cmc",
    "latitude": 9.0008487,
    "longitude": 38.8367987,
    "type": "establishment,point_of_interest",
    "Weekday": 6
  },
  {
    "CallTime": "12:01 PM",
    "CallTimeDate": "02/03/18 12:01",
    "StartAddress": "Airport International",
    "latitude": 8.9800689,
    "longitude": 38.7989319,
    "type": "airport,establishment,point_of_interest",
    "Weekday": 6
  },
  {
    "CallTime": "12:20 PM",
    "CallTimeDate": "02/03/18 12:20",
    "StartAddress": "Cmc",
    "latitude": 9.0082027,
    "longitude": 38.8510787,
    "type": "establishment,health,point_of_interest",
    "Weekday": 6
  },
  {
    "CallTime": "12:25 PM",
    "CallTimeDate": "02/03/18 12:25",
    "StartAddress": "Atlas",
    "latitude": 9.0037118,
    "longitude": 38.7805761,
    "type": "establishment,lodging,point_of_interest",
    "Weekday": 6
  },
  {
    "CallTime": "1:20 AM",
    "CallTimeDate": "03/03/18 1:20",
    "StartAddress": "Airport Domesic",
    "latitude": 8.9800689,
    "longitude": 38.7989319,
    "type": "airport,establishment,point_of_interest",
    "Weekday": 6
  },
  {
    "CallTime": "3:30 AM",
    "CallTimeDate": "02/05/18 3:30",
    "StartAddress": "Sentayehu Building",
    "latitude": 8.991288,
    "longitude": 38.7824698,
    "type": "establishment,neighborhood,point_of_interest,political",
    "Weekday": 1
  },
  {
    "CallTime": "8:20 AM",
    "CallTimeDate": "02/06/18 8:20",
    "StartAddress": "Sentayehu Building",
    "latitude": 8.991288,
    "longitude": 38.7824698,
    "type": "establishment,neighborhood,point_of_interest,political",
    "Weekday": 2
  },
  {
    "CallTime": "1:32 AM",
    "CallTimeDate": "03/03/18 1:32",
    "StartAddress": "Kazanchis",
    "latitude": 9.0165737,
    "longitude": 38.7760791,
    "type": "neighborhood,political",
    "Weekday": 6
  },
  {
    "CallTime": "11:33 AM",
    "CallTimeDate": "02/05/18 11:33",
    "StartAddress": "Sebara Babur Yohannes Church",
    "latitude": 9.0421215,
    "longitude": 38.745555,
    "type": "church,establishment,place_of_worship,point_of_interest",
    "Weekday": 1
  },
  {
    "CallTime": "2:15 AM",
    "CallTimeDate": "03/03/18 2:15",
    "StartAddress": "MK",
    "latitude": 8.9995109,
    "longitude": 38.7851796,
    "type": "establishment,food,point_of_interest,restaurant",
    "Weekday": 6
  },
  {
    "CallTime": "2:27 AM",
    "CallTimeDate": "03/03/18 2:27",
    "StartAddress": "Bulbula",
    "latitude": 8.9667811,
    "longitude": 38.7734616,
    "type": "establishment,natural_feature",
    "Weekday": 6
  },
  {
    "CallTime": "2:30 AM",
    "CallTimeDate": "03/03/18 2:30",
    "StartAddress": "Airport Domestic",
    "latitude": 8.9800689,
    "longitude": 38.7989319,
    "type": "airport,establishment,point_of_interest",
    "Weekday": 6
  },
  {
    "CallTime": "2:42 AM",
    "CallTimeDate": "03/03/18 2:42",
    "StartAddress": "Getu Bole",
    "latitude": 9.0023505,
    "longitude": 38.7694194,
    "type": "establishment,point_of_interest",
    "Weekday": 6
  },
  {
    "CallTime": "3:02 AM",
    "CallTimeDate": "03/03/18 3:02",
    "StartAddress": "Urael",
    "latitude": 9.0024254,
    "longitude": 38.781312,
    "type": "neighborhood,political",
    "Weekday": 6
  },
  {
    "CallTime": "2:00 AM",
    "CallTimeDate": "02/04/18 2:00",
    "StartAddress": "Ruwanda Mamocacha",
    "latitude": 8.9948436,
    "longitude": 38.778579,
    "type": "establishment,point_of_interest",
    "Weekday": 0
  },
  {
    "CallTime": "3:17 AM",
    "CallTimeDate": "03/03/18 3:17",
    "StartAddress": "Ramada",
    "latitude": 8.991897,
    "longitude": 38.782873,
    "type": "establishment,lodging,point_of_interest",
    "Weekday": 6
  },
  {
    "CallTime": "4:17 AM",
    "CallTimeDate": "03/03/18 4:17",
    "StartAddress": "Kara Sunshine Tsehay Real State",
    "latitude": 9.0216495,
    "longitude": 38.8534498,
    "type": "establishment,point_of_interest,real_estate_agency",
    "Weekday": 6
  },
  {
    "CallTime": "4:56 AM",
    "CallTimeDate": "03/03/18 4:56",
    "StartAddress": "Kazanchis",
    "latitude": 9.0165737,
    "longitude": 38.7760791,
    "type": "neighborhood,political",
    "Weekday": 6
  },
  {
    "CallTime": "4:57 AM",
    "CallTimeDate": "03/03/18 4:57",
    "StartAddress": "Ambasel building",
    "latitude": 8.9855585,
    "longitude": 38.767268,
    "type": "premise",
    "Weekday": 6
  },
  {
    "CallTime": "5:10 AM",
    "CallTimeDate": "03/03/18 5:10",
    "StartAddress": "24 Kokeb Building",
    "latitude": 9.0184777,
    "longitude": 38.6985784,
    "type": "premise",
    "Weekday": 6
  },
  {
    "CallTime": "5:14 AM",
    "CallTimeDate": "03/03/18 5:14",
    "StartAddress": "Zefmesh Building",
    "latitude": 9.020547,
    "longitude": 38.800301,
    "type": "establishment,point_of_interest,shopping_mall",
    "Weekday": 6
  },
  {
    "CallTime": "5:21 AM",
    "CallTimeDate": "03/03/18 5:21",
    "StartAddress": "Kazanchis",
    "latitude": 9.0165737,
    "longitude": 38.7760791,
    "type": "neighborhood,political",
    "Weekday": 6
  },
  {
    "CallTime": "5:26 AM",
    "CallTimeDate": "03/03/18 5:26",
    "StartAddress": "22 Gebriel  Hospital",
    "latitude": 9.0136265,
    "longitude": 38.8377981,
    "type": "establishment,hospital,point_of_interest",
    "Weekday": 6
  },
  {
    "CallTime": "5:30 AM",
    "CallTimeDate": "03/03/18 5:30",
    "StartAddress": "Embilta Hotel",
    "latitude": 9.0491188,
    "longitude": 38.7368917,
    "type": "establishment,lodging,point_of_interest",
    "Weekday": 6
  },
  {
    "CallTime": "5:36 AM",
    "CallTimeDate": "03/03/18 5:36",
    "StartAddress": "Vatican Embasasy",
    "latitude": 8.9886199,
    "longitude": 38.7362266,
    "type": "embassy,establishment,point_of_interest",
    "Weekday": 6
  },
  {
    "CallTime": "5:42 AM",
    "CallTimeDate": "03/03/18 5:42",
    "StartAddress": "Bole Ruwanda",
    "latitude": 8.9869641,
    "longitude": 38.7806332,
    "type": "establishment,point_of_interest,taxi_stand",
    "Weekday": 6
  },
  {
    "CallTime": "5:58 AM",
    "CallTimeDate": "03/03/18 5:58",
    "StartAddress": "Bole Kategna",
    "latitude": 8.9947604,
    "longitude": 38.7906521,
    "type": "establishment,food,point_of_interest,restaurant",
    "Weekday": 6
  },
  {
    "CallTime": "6:30 AM",
    "CallTimeDate": "03/03/18 6:30",
    "StartAddress": "Kazanchis",
    "latitude": 9.0165737,
    "longitude": 38.7760791,
    "type": "neighborhood,political",
    "Weekday": 6
  },
  {
    "CallTime": "6:30 AM",
    "CallTimeDate": "03/03/18 6:30",
    "StartAddress": 18,
    "latitude": 9.0194448,
    "longitude": 38.840199,
    "type": "establishment,food,point_of_interest,restaurant",
    "Weekday": 6
  },
  {
    "CallTime": "6:31 AM",
    "CallTimeDate": "03/03/18 6:31",
    "StartAddress": "Kolfe",
    "latitude": 9.0140964,
    "longitude": 38.7053934,
    "type": "political,sublocality,sublocality_level_1",
    "Weekday": 6
  },
  {
    "CallTime": "7:30 AM",
    "CallTimeDate": "03/03/18 7:30",
    "StartAddress": "B/Gebriel",
    "latitude": 9.0295254,
    "longitude": 38.7742335,
    "type": "route",
    "Weekday": 6
  },
  {
    "CallTime": "7:34 AM",
    "CallTimeDate": "02/22/18 7:34",
    "StartAddress": "22 Chichinia",
    "latitude": 9.005163,
    "longitude": 38.780863,
    "type": "route",
    "Weekday": 4
  },
  {
    "CallTime": "7:10 AM",
    "CallTimeDate": "02/08/18 7:10",
    "StartAddress": "Repeblic Atlas",
    "latitude": 9.0100532,
    "longitude": 38.7785605,
    "type": "establishment,point_of_interest",
    "Weekday": 4
  },
  {
    "CallTime": "7:45 AM",
    "CallTimeDate": "03/03/18 7:45",
    "StartAddress": "Cmc Yetebaberut",
    "latitude": 8.9140829,
    "longitude": 38.7629577,
    "type": "establishment,gas_station,point_of_interest",
    "Weekday": 6
  },
  {
    "CallTime": "7:55 AM",
    "CallTimeDate": "03/03/18 7:55",
    "StartAddress": "Kazanchis",
    "latitude": 9.0165737,
    "longitude": 38.7760791,
    "type": "neighborhood,political",
    "Weekday": 6
  },
  {
    "CallTime": "8:06 AM",
    "CallTimeDate": "03/03/18 8:06",
    "StartAddress": "Kazanchis",
    "latitude": 9.0165737,
    "longitude": 38.7760791,
    "type": "neighborhood,political",
    "Weekday": 6
  },
  {
    "CallTime": "8:12 AM",
    "CallTimeDate": "03/03/18 8:12",
    "StartAddress": "Mexico",
    "latitude": 9.0102287,
    "longitude": 38.7445091,
    "type": "bank,establishment,finance,point_of_interest",
    "Weekday": 6
  },
  {
    "CallTime": "8:25 AM",
    "CallTimeDate": "03/03/18 8:25",
    "StartAddress": "National Musium",
    "latitude": 9.0380095,
    "longitude": 38.7618401,
    "type": "establishment,museum,point_of_interest",
    "Weekday": 6
  },
  {
    "CallTime": "9:00 AM",
    "CallTimeDate": "03/03/18 9:00",
    "StartAddress": "Legehar",
    "latitude": 9.0117927,
    "longitude": 38.7537469,
    "type": "establishment,point_of_interest",
    "Weekday": 6
  },
  {
    "CallTime": "10:20 AM",
    "CallTimeDate": "03/03/18 10:20",
    "StartAddress": "Kazanchis",
    "latitude": 9.0165737,
    "longitude": 38.7760791,
    "type": "neighborhood,political",
    "Weekday": 6
  },
  {
    "CallTime": "11:00 AM",
    "CallTimeDate": "03/03/18 11:00",
    "StartAddress": "",
    "latitude": 9.0165737,
    "longitude": 38.7760791,
    "type": "neighborhood,political",
    "Weekday": 6
  },
  {
    "CallTime": "11:00 AM",
    "CallTimeDate": "03/03/18 11:00",
    "StartAddress": "Juventus Club",
    "latitude": 9.0092518,
    "longitude": 38.761096,
    "type": "establishment,point_of_interest",
    "Weekday": 6
  },
  {
    "CallTime": "11:10 AM",
    "CallTimeDate": "03/03/18 11:10",
    "StartAddress": "Piassa",
    "latitude": 9.0371838,
    "longitude": 38.7551432,
    "type": "neighborhood,political",
    "Weekday": 6
  },
  {
    "CallTime": "8:20 AM",
    "CallTimeDate": "02/28/18  8:20",
    "StartAddress": "Rebecaz Building",
    "latitude": 9.0155921,
    "longitude": 38.7847956,
    "type": "premise",
    "Weekday": 3
  },
  {
    "CallTime": "11:30 AM",
    "CallTimeDate": "03/03/18 11:30",
    "StartAddress": "Balderas",
    "latitude": 9.028504,
    "longitude": 38.7844597,
    "type": "establishment,lodging,point_of_interest",
    "Weekday": 6
  },
  {
    "CallTime": "11:35 AM",
    "CallTimeDate": "03/03/18 11:35",
    "StartAddress": "Bole Getu",
    "latitude": 9.0023505,
    "longitude": 38.7694194,
    "type": "establishment,point_of_interest",
    "Weekday": 6
  },
  {
    "CallTime": "11:50 AM",
    "CallTimeDate": "03/03/18 11:50",
    "StartAddress": "B/Gebriel",
    "latitude": 9.0295254,
    "longitude": 38.7742335,
    "type": "route",
    "Weekday": 6
  },
  {
    "CallTime": "8:36 AM",
    "CallTimeDate": "02/23/18 8:36",
    "StartAddress": "22 Golagul",
    "latitude": 9.0154348,
    "longitude": 38.7869515,
    "type": "establishment,parking,point_of_interest",
    "Weekday": 5
  },
  {
    "CallTime": "12:25 PM",
    "CallTimeDate": "03/03/18 12:25",
    "StartAddress": "Land Mark",
    "latitude": 9.0059007,
    "longitude": 38.7474034,
    "type": "establishment,hospital,point_of_interest",
    "Weekday": 6
  },
  {
    "CallTime": "12:30 PM",
    "CallTimeDate": "03/03/18 12:30",
    "StartAddress": "Engliz Embassy",
    "latitude": 9.0305289,
    "longitude": 38.788079,
    "type": "embassy,establishment,point_of_interest",
    "Weekday": 6
  },
  {
    "CallTime": "1:17 AM",
    "CallTimeDate": "02/04/18 1:17",
    "StartAddress": "Radisun Blu",
    "latitude": 9.016298,
    "longitude": 38.767855,
    "type": "establishment,lodging,point_of_interest",
    "Weekday": 0
  },
  {
    "CallTime": "1:42 AM",
    "CallTimeDate": "02/04/18 1:42",
    "StartAddress": "Tafo",
    "latitude": 9.0358725,
    "longitude": 38.8782489,
    "type": "establishment,point_of_interest",
    "Weekday": 0
  },
  {
    "CallTime": "1:27 AM",
    "CallTimeDate": "02/03/18 1:27",
    "StartAddress": "Rackac Business Center",
    "latitude": 9.0155921,
    "longitude": 38.7847956,
    "type": "premise",
    "Weekday": 6
  },
  {
    "CallTime": "2:00 AM",
    "CallTimeDate": "02/04/18 2:00",
    "StartAddress": "Gerji",
    "latitude": 9.0062194,
    "longitude": 38.8231602,
    "type": "neighborhood,political",
    "Weekday": 0
  },
  {
    "CallTime": "2:05 AM",
    "CallTimeDate": "02/04/18 2:05",
    "StartAddress": "Ruwanda",
    "latitude": 8.9876357,
    "longitude": 38.7771485,
    "type": "route",
    "Weekday": 0
  },
  {
    "CallTime": "2:10 AM",
    "CallTimeDate": "02/04/18 2:10",
    "StartAddress": "Kazanchis",
    "latitude": 9.0165737,
    "longitude": 38.7760791,
    "type": "neighborhood,political",
    "Weekday": 0
  },
  {
    "CallTime": "2:15 AM",
    "CallTimeDate": "02/04/18 2:15",
    "StartAddress": "Canada Embassy",
    "latitude": 8.9950337,
    "longitude": 38.7358323,
    "type": "embassy,establishment,point_of_interest",
    "Weekday": 0
  },
  {
    "CallTime": "2:38 AM",
    "CallTimeDate": "02/04/18 2:38",
    "StartAddress": "Gerji Sunshine Appartmnet",
    "latitude": 8.9943122,
    "longitude": 38.8115565,
    "type": "establishment,point_of_interest",
    "Weekday": 0
  },
  {
    "CallTime": "3:14 AM",
    "CallTimeDate": "02/04/18 3:14",
    "StartAddress": "Bole Sidama Lounge",
    "latitude": 8.9939542,
    "longitude": 38.7781352,
    "type": "establishment,lodging,point_of_interest",
    "Weekday": 0
  },
  {
    "CallTime": "12:35 PM",
    "CallTimeDate": "02/10/18 12:35",
    "StartAddress": "Piassa, Tango",
    "latitude": 9.0371838,
    "longitude": 38.7551432,
    "type": "neighborhood,political",
    "Weekday": 6
  },
  {
    "CallTime": "3:22 AM",
    "CallTimeDate": "02/04/18 3:22",
    "StartAddress": "Bole Birass",
    "latitude": 8.9900395,
    "longitude": 38.7935202,
    "type": "establishment,hospital,point_of_interest",
    "Weekday": 0
  },
  {
    "CallTime": "5:57 AM",
    "CallTimeDate": "02/10/18 5:57",
    "StartAddress": "Piassa Atekelt Tera",
    "latitude": 9.0342109,
    "longitude": 38.7361729,
    "type": "establishment,point_of_interest",
    "Weekday": 6
  },
  {
    "CallTime": "3:40 AM",
    "CallTimeDate": "02/04/18 3:40",
    "StartAddress": "Sarbet",
    "latitude": 8.9928215,
    "longitude": 38.7382435,
    "type": "bus_station,establishment,point_of_interest,transit_station",
    "Weekday": 0
  },
  {
    "CallTime": "3:30 AM",
    "CallTimeDate": "02/03/18 3:30",
    "StartAddress": "olompia Sena Restaurant",
    "latitude": 8.9992294,
    "longitude": 38.7681398,
    "type": "establishment,food,point_of_interest,restaurant",
    "Weekday": 6
  },
  {
    "CallTime": "4:05 AM",
    "CallTimeDate": "02/04/18 4:05",
    "StartAddress": "Mosaic Hotel",
    "latitude": 8.9958467,
    "longitude": 38.7845492,
    "type": "establishment,lodging,point_of_interest",
    "Weekday": 0
  },
  {
    "CallTime": "4:29 AM",
    "CallTimeDate": "02/04/18 4:29",
    "StartAddress": "Bole",
    "latitude": 8.9831138,
    "longitude": 38.8100855,
    "type": "political,sublocality,sublocality_level_1",
    "Weekday": 0
  },
  {
    "CallTime": "5:10 AM",
    "CallTimeDate": "02/04/18 5:10",
    "StartAddress": "Axum Building",
    "latitude": 9.0072828,
    "longitude": 38.7763039,
    "type": "premise",
    "Weekday": 0
  },
  {
    "CallTime": "5:14 AM",
    "CallTimeDate": "02/04/18 5:14",
    "StartAddress": "Lebu",
    "latitude": 8.9474532,
    "longitude": 38.734282,
    "type": "bank,establishment,finance,point_of_interest",
    "Weekday": 0
  },
  {
    "CallTime": "5:24 AM",
    "CallTimeDate": "02/04/18 5:24",
    "StartAddress": "Jalmeda",
    "latitude": 9.0399796,
    "longitude": 38.7726467,
    "type": "establishment,point_of_interest",
    "Weekday": 0
  },
  {
    "CallTime": "7:44 AM",
    "CallTimeDate": "02/04/18 7:44",
    "StartAddress": "Mafi Building",
    "latitude": 8.9963835,
    "longitude": 38.7876821,
    "type": "cafe,establishment,food,point_of_interest,shopping_mall",
    "Weekday": 0
  },
  {
    "CallTime": "5:20 AM",
    "CallTimeDate": "02/10/18 5:20",
    "StartAddress": "Old Iss",
    "latitude": 9.0076715,
    "longitude": 38.7655377,
    "type": "establishment,point_of_interest",
    "Weekday": 6
  },
  {
    "CallTime": "5:09 AM",
    "CallTimeDate": "2/19/18 5:09",
    "StartAddress": "MKS Building",
    "latitude": 8.9995109,
    "longitude": 38.7851796,
    "type": "establishment,food,point_of_interest,restaurant",
    "Weekday": 1
  },
  {
    "CallTime": "10:49 AM",
    "CallTimeDate": "02/04/18 10:49",
    "StartAddress": "Old Airport",
    "latitude": 9.0036905,
    "longitude": 38.7252246,
    "type": "airport,establishment,point_of_interest",
    "Weekday": 0
  },
  {
    "CallTime": "11:17 AM",
    "CallTimeDate": "02/04/18 11:17",
    "StartAddress": "Enderase Condominium",
    "latitude": 8.9847827,
    "longitude": 38.7557975,
    "type": "establishment,point_of_interest",
    "Weekday": 0
  },
  {
    "CallTime": "11:25 AM",
    "CallTimeDate": "02/04/18 11:25",
    "StartAddress": "Bole NOC",
    "latitude": 8.98863,
    "longitude": 38.790616,
    "type": "establishment,point_of_interest",
    "Weekday": 0
  },
  {
    "CallTime": "11:30 AM",
    "CallTimeDate": "02/04/18 11:30",
    "StartAddress": "Megenagna",
    "latitude": 9.0204692,
    "longitude": 38.8024029,
    "type": "bus_station,establishment,point_of_interest,transit_station",
    "Weekday": 0
  },
  {
    "CallTime": "11:43 AM",
    "CallTimeDate": "02/04/18 11:43",
    "StartAddress": "Bole Ambassador Hotel",
    "latitude": 8.9920334,
    "longitude": 38.7882155,
    "type": "establishment,lodging,point_of_interest",
    "Weekday": 0
  },
  {
    "CallTime": "11:57 AM",
    "CallTimeDate": "02/04/18 11:57",
    "StartAddress": "Summit 72",
    "latitude": 9.0027996,
    "longitude": 38.8528952,
    "type": "establishment,place_of_worship,point_of_interest",
    "Weekday": 0
  },
  {
    "CallTime": "12:08 PM",
    "CallTimeDate": "02/04/18 12:08",
    "StartAddress": "Momona Hotel",
    "latitude": 8.9908767,
    "longitude": 38.7852288,
    "type": "establishment,lodging,point_of_interest",
    "Weekday": 0
  },
  {
    "CallTime": "1:21 AM",
    "CallTimeDate": "03/04/18 1:21",
    "StartAddress": "Stadium",
    "latitude": 9.0130655,
    "longitude": 38.756779,
    "type": "establishment,point_of_interest,stadium",
    "Weekday": 0
  },
  {
    "CallTime": "3:14 AM",
    "CallTimeDate": "03/04/18 3:14",
    "StartAddress": "Salitemihret",
    "latitude": 9.0115694,
    "longitude": 38.8215212,
    "type": "route",
    "Weekday": 0
  },
  {
    "CallTime": "3:55 AM",
    "CallTimeDate": "03/04/18 3:55",
    "StartAddress": "Bole",
    "latitude": 8.9831138,
    "longitude": 38.8100855,
    "type": "political,sublocality,sublocality_level_1",
    "Weekday": 0
  },
  {
    "CallTime": "4:00 AM",
    "CallTimeDate": "03/04/18 4:00",
    "StartAddress": "Torhailoch",
    "latitude": 9.0128546,
    "longitude": 38.7242317,
    "type": "establishment,hospital,point_of_interest",
    "Weekday": 0
  },
  {
    "CallTime": "12:04 PM",
    "CallTimeDate": "2/16/18 12:04",
    "StartAddress": "Misrak Atekalay",
    "latitude": 9.0364311,
    "longitude": 38.7724812,
    "type": "establishment,point_of_interest,school",
    "Weekday": 5
  },
  {
    "CallTime": "4:08 AM",
    "CallTimeDate": "03/04/18 4:08",
    "StartAddress": "Atlas",
    "latitude": 9.0037118,
    "longitude": 38.7805761,
    "type": "establishment,lodging,point_of_interest",
    "Weekday": 0
  },
  {
    "CallTime": "4:08 AM",
    "CallTimeDate": "03/04/18 4:08",
    "StartAddress": "Vention",
    "latitude": 9.0546638,
    "longitude": 38.7631224,
    "type": "city_hall,establishment,local_government_office,point_of_interest",
    "Weekday": 0
  },
  {
    "CallTime": "4:14 AM",
    "CallTimeDate": "03/04/18 4:14",
    "StartAddress": "Gerji Sunshine",
    "latitude": 8.9943122,
    "longitude": 38.8115565,
    "type": "establishment,point_of_interest",
    "Weekday": 0
  },
  {
    "CallTime": "4:55 AM",
    "CallTimeDate": "03/04/18 4:55",
    "StartAddress": "Balderas",
    "latitude": 9.028504,
    "longitude": 38.7844597,
    "type": "establishment,lodging,point_of_interest",
    "Weekday": 0
  },
  {
    "CallTime": "11:27 AM",
    "CallTimeDate": "02/03/18 11:27",
    "StartAddress": "Mexico Shebele",
    "latitude": 9.0122623,
    "longitude": 38.7468421,
    "type": "establishment,lodging,point_of_interest",
    "Weekday": 6
  },
  {
    "CallTime": "5:11 AM",
    "CallTimeDate": "03/04/18 5:11",
    "StartAddress": "Awraris Hotel 22",
    "latitude": 9.0099976,
    "longitude": 38.7879752,
    "type": "establishment,lodging,point_of_interest",
    "Weekday": 0
  },
  {
    "CallTime": "5:30 AM",
    "CallTimeDate": "03/04/18 5:30",
    "StartAddress": "22 Golagol",
    "latitude": 9.0155525,
    "longitude": 38.7871168,
    "type": "premise",
    "Weekday": 0
  },
  {
    "CallTime": "5:36 AM",
    "CallTimeDate": "03/04/18 5:36",
    "StartAddress": "Cmc Tsehay Real State",
    "latitude": 9.0216495,
    "longitude": 38.8534498,
    "type": "establishment,point_of_interest,real_estate_agency",
    "Weekday": 0
  },
  {
    "CallTime": "5:39 AM",
    "CallTimeDate": "03/04/18 5:39",
    "StartAddress": "Nega Bonger Hotel",
    "latitude": 8.9519359,
    "longitude": 38.7612349,
    "type": "establishment,lodging,point_of_interest",
    "Weekday": 0
  },
  {
    "CallTime": "4:29 AM",
    "CallTimeDate": "02/08/18 4:29",
    "StartAddress": "Mexico Areke Fabrica",
    "latitude": 9.0154434,
    "longitude": 38.7270762,
    "type": "establishment,point_of_interest",
    "Weekday": 4
  },
  {
    "CallTime": "5:49 AM",
    "CallTimeDate": "03/04/18 5:49",
    "StartAddress": "22 Karavan Hotel",
    "latitude": 9.010193,
    "longitude": 38.782112,
    "type": "establishment,lodging,point_of_interest",
    "Weekday": 0
  },
  {
    "CallTime": "6:32 AM",
    "CallTimeDate": "03/04/18 6:32",
    "StartAddress": "Bole Renisa Hotel",
    "latitude": 8.9893129,
    "longitude": 38.7856727,
    "type": "establishment,lodging,point_of_interest",
    "Weekday": 0
  },
  {
    "CallTime": "6:49 AM",
    "CallTimeDate": "03/04/18 6:49",
    "StartAddress": "Kazanchis",
    "latitude": 9.0165737,
    "longitude": 38.7760791,
    "type": "neighborhood,political",
    "Weekday": 0
  },
  {
    "CallTime": "6:58 AM",
    "CallTimeDate": "03/04/18 6:58",
    "StartAddress": "Gurd Shola Holly City Center",
    "latitude": 9.0193289,
    "longitude": 38.8170147,
    "type": "premise",
    "Weekday": 0
  },
  {
    "CallTime": "7:20 AM",
    "CallTimeDate": "03/04/18 7:20",
    "StartAddress": "Airport Domestic",
    "latitude": 8.9800689,
    "longitude": 38.7989319,
    "type": "airport,establishment,point_of_interest",
    "Weekday": 0
  },
  {
    "CallTime": "11:35 AM",
    "CallTimeDate": "02/08/18 11:35",
    "StartAddress": "Mexico Areke Fabrica",
    "latitude": 9.0154434,
    "longitude": 38.7270762,
    "type": "establishment,point_of_interest",
    "Weekday": 4
  },
  {
    "CallTime": "7:41 AM",
    "CallTimeDate": "03/04/18 7:41",
    "StartAddress": "Venishal Hotel",
    "latitude": 8.995529,
    "longitude": 38.787224,
    "type": "establishment,lodging,point_of_interest",
    "Weekday": 0
  },
  {
    "CallTime": "7:52 AM",
    "CallTimeDate": "03/04/18 7:52",
    "StartAddress": "22 Plaza Hotel",
    "latitude": 9.0121819,
    "longitude": 38.7777553,
    "type": "establishment,lodging,point_of_interest",
    "Weekday": 0
  },
  {
    "CallTime": "8:03 AM",
    "CallTimeDate": "03/04/18 8:03",
    "StartAddress": "New Intercondtinental",
    "latitude": 9.015466,
    "longitude": 38.769788,
    "type": "establishment,lodging,point_of_interest",
    "Weekday": 0
  },
  {
    "CallTime": "1:30 AM",
    "CallTimeDate": "03/03/18 1:30",
    "StartAddress": "Meri Loke Sunshine",
    "latitude": 9.0331037,
    "longitude": 38.8504242,
    "type": "establishment,point_of_interest",
    "Weekday": 6
  },
  {
    "CallTime": "8:34 AM",
    "CallTimeDate": "03/04/18 8:34",
    "StartAddress": "Jemo",
    "latitude": 8.9581465,
    "longitude": 38.7119416,
    "type": "neighborhood,political",
    "Weekday": 0
  },
  {
    "CallTime": "9:29 AM",
    "CallTimeDate": "03/04/18 9:29",
    "StartAddress": "Ednamall",
    "latitude": 8.9973888,
    "longitude": 38.7867701,
    "type": "establishment,point_of_interest,shopping_mall",
    "Weekday": 0
  },
  {
    "CallTime": "9:33 AM",
    "CallTimeDate": "03/04/18 9:33",
    "StartAddress": "Bole",
    "latitude": 8.9831138,
    "longitude": 38.8100855,
    "type": "political,sublocality,sublocality_level_1",
    "Weekday": 0
  },
  {
    "CallTime": "10:12 AM",
    "CallTimeDate": "03/04/18 10:12",
    "StartAddress": "Ednamall",
    "latitude": 8.9973888,
    "longitude": 38.7867701,
    "type": "establishment,point_of_interest,shopping_mall",
    "Weekday": 0
  },
  {
    "CallTime": "10:15 AM",
    "CallTimeDate": "03/04/18 10:15",
    "StartAddress": "Gerji",
    "latitude": 9.0062194,
    "longitude": 38.8231602,
    "type": "neighborhood,political",
    "Weekday": 0
  },
  {
    "CallTime": "11:03 AM",
    "CallTimeDate": "03/04/18 11:03",
    "StartAddress": "Kazanchis",
    "latitude": 9.0165737,
    "longitude": 38.7760791,
    "type": "neighborhood,political",
    "Weekday": 0
  },
  {
    "CallTime": "11:29 AM",
    "CallTimeDate": "03/04/18 11:29",
    "StartAddress": "Bole",
    "latitude": 8.9831138,
    "longitude": 38.8100855,
    "type": "political,sublocality,sublocality_level_1",
    "Weekday": 0
  },
  {
    "CallTime": "11:33 AM",
    "CallTimeDate": "03/04/18 11:33",
    "StartAddress": "Monarch",
    "latitude": 8.9946281,
    "longitude": 38.7855226,
    "type": "establishment,lodging,point_of_interest",
    "Weekday": 0
  },
  {
    "CallTime": "11:47 AM",
    "CallTimeDate": "03/04/18 11:47",
    "StartAddress": "Bole International Hotel",
    "latitude": 8.9924524,
    "longitude": 38.7914915,
    "type": "establishment,lodging,point_of_interest",
    "Weekday": 0
  },
  {
    "CallTime": "11:59 AM",
    "CallTimeDate": "03/04/18 11:59",
    "StartAddress": "Bole",
    "latitude": 8.9831138,
    "longitude": 38.8100855,
    "type": "political,sublocality,sublocality_level_1",
    "Weekday": 0
  },
  {
    "CallTime": "12:15 PM",
    "CallTimeDate": "03/04/18 12:15",
    "StartAddress": "Menaros",
    "latitude": 9.004634,
    "longitude": 38.7715083,
    "type": "establishment,point_of_interest",
    "Weekday": 0
  },
  {
    "CallTime": "10:39 AM",
    "CallTimeDate": "02/06/18 10:39",
    "StartAddress": "Meklit 22",
    "latitude": 9.0161638,
    "longitude": 38.7908645,
    "type": "establishment,point_of_interest",
    "Weekday": 2
  },
  {
    "CallTime": "12:21 PM",
    "CallTimeDate": "03/04/18 12:21",
    "StartAddress": "Wellosefer",
    "latitude": 8.9924014,
    "longitude": 38.7757111,
    "type": "establishment,mosque,place_of_worship,point_of_interest,premise",
    "Weekday": 0
  },
  {
    "CallTime": "4:17 AM",
    "CallTimeDate": "03/02/18 4:17",
    "StartAddress": "Mekanissa Kore Arenguade",
    "latitude": 8.9829192,
    "longitude": 38.711319,
    "type": "establishment,hospital,point_of_interest",
    "Weekday": 5
  },
  {
    "CallTime": "1:15 AM",
    "CallTimeDate": "02/05/18 1:15",
    "StartAddress": "Eziarab Church",
    "latitude": 9.0308544,
    "longitude": 38.7664298,
    "type": "church,establishment,place_of_worship,point_of_interest",
    "Weekday": 1
  },
  {
    "CallTime": "1:16 AM",
    "CallTimeDate": "02/05/18 1:16",
    "StartAddress": "Cmc Compound",
    "latitude": 9.0205438,
    "longitude": 38.8476442,
    "type": "establishment,point_of_interest",
    "Weekday": 1
  },
  {
    "CallTime": "1:29 AM",
    "CallTimeDate": "02/05/18 1:29",
    "StartAddress": "Summit",
    "latitude": 9.0027996,
    "longitude": 38.8528952,
    "type": "establishment,place_of_worship,point_of_interest",
    "Weekday": 1
  },
  {
    "CallTime": "1:37 AM",
    "CallTimeDate": "02/05/18 1:37",
    "StartAddress": "Bole Homes",
    "latitude": 8.9874651,
    "longitude": 38.7976622,
    "type": "neighborhood,political",
    "Weekday": 1
  },
  {
    "CallTime": "1:49 AM",
    "CallTimeDate": "02/05/18 1:49",
    "StartAddress": "Washington",
    "latitude": 9.0023668,
    "longitude": 38.7800856,
    "type": "establishment,lodging,point_of_interest",
    "Weekday": 1
  },
  {
    "CallTime": "1:58 AM",
    "CallTimeDate": "02/05/18 1:58",
    "StartAddress": "Megenagna Rift Valley",
    "latitude": 9.0323684,
    "longitude": 38.7502293,
    "type": "establishment,point_of_interest",
    "Weekday": 1
  },
  {
    "CallTime": "2:03 AM",
    "CallTimeDate": "02/05/18 2:03",
    "StartAddress": "Ramada Hotel",
    "latitude": 8.991897,
    "longitude": 38.782873,
    "type": "establishment,lodging,point_of_interest",
    "Weekday": 1
  },
  {
    "CallTime": "2:03 AM",
    "CallTimeDate": "02/05/18 2:03",
    "StartAddress": "Goro School",
    "latitude": 8.9951105,
    "longitude": 38.8271642,
    "type": "establishment,point_of_interest,school",
    "Weekday": 1
  },
  {
    "CallTime": "2:12 AM",
    "CallTimeDate": "02/05/18 2:12",
    "StartAddress": "Getu Commercial",
    "latitude": 9.0023505,
    "longitude": 38.7694194,
    "type": "establishment,point_of_interest",
    "Weekday": 1
  },
  {
    "CallTime": "7:07 AM",
    "CallTimeDate": "02/08/18 7:07",
    "StartAddress": "Megenagna Retruk",
    "latitude": 9.0204692,
    "longitude": 38.8024029,
    "type": "bus_station,establishment,point_of_interest,transit_station",
    "Weekday": 4
  },
  {
    "CallTime": "2:23 AM",
    "CallTimeDate": "02/05/18 2:23",
    "StartAddress": 22,
    "latitude": 9.0162255,
    "longitude": 38.7872096,
    "type": "street_address",
    "Weekday": 1
  },
  {
    "CallTime": "2:30 AM",
    "CallTimeDate": "02/05/18 2:30",
    "StartAddress": "Brihane Adere Mall",
    "latitude": 8.9957695,
    "longitude": 38.7879343,
    "type": "establishment,point_of_interest,shopping_mall",
    "Weekday": 1
  },
  {
    "CallTime": "6:37 AM",
    "CallTimeDate": "02/05/18 6:37",
    "StartAddress": "Megenagna Bole K/k Jerba",
    "latitude": 9.0204692,
    "longitude": 38.8024029,
    "type": "bus_station,establishment,point_of_interest,transit_station",
    "Weekday": 1
  },
  {
    "CallTime": "3:52 AM",
    "CallTimeDate": "02/07/18 3:52",
    "StartAddress": "lancha station",
    "latitude": 8.9903452,
    "longitude": 38.7591886,
    "type": "establishment,point_of_interest",
    "Weekday": 3
  },
  {
    "CallTime": "2:48 AM",
    "CallTimeDate": "02/05/18 2:48",
    "StartAddress": "Summit",
    "latitude": 9.0027996,
    "longitude": 38.8528952,
    "type": "establishment,place_of_worship,point_of_interest",
    "Weekday": 1
  },
  {
    "CallTime": "2:51 AM",
    "CallTimeDate": "02/05/18 2:51",
    "StartAddress": "Bole International Airport",
    "latitude": 8.9800689,
    "longitude": 38.7989319,
    "type": "airport,establishment,point_of_interest",
    "Weekday": 1
  },
  {
    "CallTime": "2:52 AM",
    "CallTimeDate": "02/05/18 2:52",
    "StartAddress": "Ednamall",
    "latitude": 8.9973888,
    "longitude": 38.7867701,
    "type": "establishment,point_of_interest,shopping_mall",
    "Weekday": 1
  },
  {
    "CallTime": "7:06 AM",
    "CallTimeDate": "02/06/18 7:06",
    "StartAddress": "Lice G/mariam",
    "latitude": 9.0237376,
    "longitude": 38.7525399,
    "type": "establishment,point_of_interest,school",
    "Weekday": 2
  },
  {
    "CallTime": "3:01 AM",
    "CallTimeDate": "02/05/18 3:01",
    "StartAddress": "Ramada Hotel",
    "latitude": 8.991897,
    "longitude": 38.782873,
    "type": "establishment,lodging,point_of_interest",
    "Weekday": 1
  },
  {
    "CallTime": "3:13 AM",
    "CallTimeDate": "02/05/18 3:13",
    "StartAddress": "Ramada",
    "latitude": 8.991897,
    "longitude": 38.782873,
    "type": "establishment,lodging,point_of_interest",
    "Weekday": 1
  },
  {
    "CallTime": "3:23 AM",
    "CallTimeDate": "02/05/18 3:23",
    "StartAddress": 22,
    "latitude": 9.0162255,
    "longitude": 38.7872096,
    "type": "street_address",
    "Weekday": 1
  },
  {
    "CallTime": "7:26 AM",
    "CallTimeDate": "02/03/18 7:26",
    "StartAddress": "Lebu Musika Bet",
    "latitude": 8.9474532,
    "longitude": 38.734282,
    "type": "establishment,point_of_interest",
    "Weekday": 6
  },
  {
    "CallTime": "12:25 PM",
    "CallTimeDate": "03/03/18 12:25",
    "StartAddress": "Lebu Gosem Grocery",
    "latitude": 8.9474532,
    "longitude": 38.734282,
    "type": "establishment,point_of_interest",
    "Weekday": 6
  },
  {
    "CallTime": "3:45 AM",
    "CallTimeDate": "02/05/18 3:45",
    "StartAddress": "Airport",
    "latitude": 8.9800689,
    "longitude": 38.7989319,
    "type": "airport,establishment,point_of_interest",
    "Weekday": 1
  },
  {
    "CallTime": "3:54 AM",
    "CallTimeDate": "02/05/18 3:54",
    "StartAddress": "Mafi City Mall",
    "latitude": 8.9963835,
    "longitude": 38.7876821,
    "type": "cafe,establishment,food,point_of_interest,shopping_mall",
    "Weekday": 1
  },
  {
    "CallTime": "3:54 AM",
    "CallTimeDate": "02/05/18 3:54",
    "StartAddress": "Bole Mamas Kichen",
    "latitude": 8.9961298,
    "longitude": 38.7877783,
    "type": "establishment,food,point_of_interest,restaurant",
    "Weekday": 1
  },
  {
    "CallTime": "4:12 AM",
    "CallTimeDate": "02/05/18 4:12",
    "StartAddress": "M/flower",
    "latitude": 8.9957193,
    "longitude": 38.7666632,
    "type": "route",
    "Weekday": 1
  },
  {
    "CallTime": "4:13 AM",
    "CallTimeDate": "02/05/18 4:13",
    "StartAddress": "Gotera",
    "latitude": 8.9847827,
    "longitude": 38.7557975,
    "type": "establishment,point_of_interest",
    "Weekday": 1
  },
  {
    "CallTime": "8:05 AM",
    "CallTimeDate": "02/05/18 8:05",
    "StartAddress": "Kokeb Atsibeha",
    "latitude": 9.03499,
    "longitude": 38.779689,
    "type": "establishment,point_of_interest,school",
    "Weekday": 1
  },
  {
    "CallTime": "4:22 AM",
    "CallTimeDate": "02/05/18 4:22",
    "StartAddress": "Rakan Building",
    "latitude": 9.0014242,
    "longitude": 38.7795305,
    "type": "establishment,food,point_of_interest,restaurant",
    "Weekday": 1
  },
  {
    "CallTime": "4:25 AM",
    "CallTimeDate": "02/05/18 4:25",
    "StartAddress": "Ras Amba Hotel",
    "latitude": 9.0316722,
    "longitude": 38.77107,
    "type": "establishment,lodging,point_of_interest",
    "Weekday": 1
  },
  {
    "CallTime": "4:33 AM",
    "CallTimeDate": "02/05/18 4:33",
    "StartAddress": "Fendika",
    "latitude": 9.019046,
    "longitude": 38.770218,
    "type": "establishment,point_of_interest",
    "Weekday": 1
  },
  {
    "CallTime": "5:00 AM",
    "CallTimeDate": "02/05/18 5:00",
    "StartAddress": "Megenagna Bole K/k",
    "latitude": 9.0183708,
    "longitude": 38.795966,
    "type": "premise",
    "Weekday": 1
  },
  {
    "CallTime": "12:23 PM",
    "CallTimeDate": "02/09/18 12:23",
    "StartAddress": "Kokeb Adarash",
    "latitude": 9.0184777,
    "longitude": 38.6985784,
    "type": "premise",
    "Weekday": 5
  },
  {
    "CallTime": "4:56 AM",
    "CallTimeDate": "02/06/18 4:56",
    "StartAddress": "Kebe Cake Bet",
    "latitude": 8.9956646,
    "longitude": 38.7923866,
    "type": "cafe,establishment,food,point_of_interest",
    "Weekday": 2
  },
  {
    "CallTime": "5:45 AM",
    "CallTimeDate": "02/05/18 5:45",
    "StartAddress": "Goro",
    "latitude": 8.9975378,
    "longitude": 38.8296965,
    "type": "locality,political",
    "Weekday": 1
  },
  {
    "CallTime": "6:12 AM",
    "CallTimeDate": "02/05/18 6:12",
    "StartAddress": "Lime Tree",
    "latitude": 9.0139844,
    "longitude": 38.7696382,
    "type": "establishment,food,point_of_interest,restaurant",
    "Weekday": 1
  },
  {
    "CallTime": "1:54 AM",
    "CallTimeDate": "02/09/18 1:54",
    "StartAddress": "Kazanchis Nigd Minister",
    "latitude": 9.0203846,
    "longitude": 38.7533437,
    "type": "establishment,point_of_interest,premise",
    "Weekday": 5
  },
  {
    "CallTime": "3:45 AM",
    "CallTimeDate": "02/10/18 3:45",
    "StartAddress": "Kazanchis Luftanza",
    "latitude": 9.0071812,
    "longitude": 38.7742351,
    "type": "establishment,point_of_interest",
    "Weekday": 6
  },
  {
    "CallTime": "6:47 AM",
    "CallTimeDate": "02/05/18 6:47",
    "StartAddress": "Bole",
    "latitude": 8.9831138,
    "longitude": 38.8100855,
    "type": "political,sublocality,sublocality_level_1",
    "Weekday": 1
  },
  {
    "CallTime": "6:33 AM",
    "CallTimeDate": "02/03/18 6:33",
    "StartAddress": "Kazanchis Enderase Condomi",
    "latitude": 8.9847827,
    "longitude": 38.7557975,
    "type": "establishment,point_of_interest",
    "Weekday": 6
  },
  {
    "CallTime": "7:19 AM",
    "CallTimeDate": "02/05/18 7:19",
    "StartAddress": "Lafto Mall",
    "latitude": 8.9902836,
    "longitude": 38.7259215,
    "type": "establishment,point_of_interest,shopping_mall",
    "Weekday": 1
  },
  {
    "CallTime": "8:00 AM",
    "CallTimeDate": "02/05/18 8:00",
    "StartAddress": "Ramada Hotel",
    "latitude": 8.991897,
    "longitude": 38.782873,
    "type": "establishment,lodging,point_of_interest",
    "Weekday": 1
  },
  {
    "CallTime": "8:11 AM",
    "CallTimeDate": "03/04/18 8:11",
    "StartAddress": "Kality Menaheria",
    "latitude": 8.891114,
    "longitude": 38.775362,
    "type": "establishment,point_of_interest",
    "Weekday": 0
  },
  {
    "CallTime": "8:20 AM",
    "CallTimeDate": "02/05/18 8:20",
    "StartAddress": "Beshale Hotel",
    "latitude": 9.0199096,
    "longitude": 38.8245823,
    "type": "establishment,lodging,point_of_interest",
    "Weekday": 1
  },
  {
    "CallTime": "3:22 AM",
    "CallTimeDate": "02/06/18 3:22",
    "StartAddress": "Jemo Michael",
    "latitude": 8.9685566,
    "longitude": 38.7215869,
    "type": "church,establishment,place_of_worship,point_of_interest",
    "Weekday": 2
  },
  {
    "CallTime": "8:36 AM",
    "CallTimeDate": "02/05/18 8:36",
    "StartAddress": "Goro",
    "latitude": 8.9975378,
    "longitude": 38.8296965,
    "type": "locality,political",
    "Weekday": 1
  },
  {
    "CallTime": "10:00 AM",
    "CallTimeDate": "02/05/18 10:00",
    "StartAddress": "22 Rebecca",
    "latitude": 9.0154785,
    "longitude": 38.7848024,
    "type": "establishment,finance,point_of_interest",
    "Weekday": 1
  },
  {
    "CallTime": "10:47 AM",
    "CallTimeDate": "02/05/18 10:47",
    "StartAddress": "Kazanchis Iom",
    "latitude": 8.9929521,
    "longitude": 38.7891201,
    "type": "establishment,point_of_interest",
    "Weekday": 1
  },
  {
    "CallTime": "2:00 AM",
    "CallTimeDate": "02/09/18 2:00",
    "StartAddress": "Jemo Michael",
    "latitude": 8.9685566,
    "longitude": 38.7215869,
    "type": "church,establishment,place_of_worship,point_of_interest",
    "Weekday": 5
  },
  {
    "CallTime": "7:11 AM",
    "CallTimeDate": "02/06/18 7:11",
    "StartAddress": "Jemo Medihanialem",
    "latitude": 8.9530835,
    "longitude": 38.7139776,
    "type": "church,establishment,place_of_worship,point_of_interest",
    "Weekday": 2
  },
  {
    "CallTime": "11:40 AM",
    "CallTimeDate": "02/05/18 11:40",
    "StartAddress": "German Embasasy",
    "latitude": 9.0403579,
    "longitude": 38.7793497,
    "type": "embassy,establishment,point_of_interest,premise",
    "Weekday": 1
  },
  {
    "CallTime": "6:50 AM",
    "CallTimeDate": "2/13/18 6:50",
    "StartAddress": "Jacross Meta",
    "latitude": 9.0117187,
    "longitude": 38.8212094,
    "type": "establishment,point_of_interest",
    "Weekday": 2
  },
  {
    "CallTime": "11:49 AM",
    "CallTimeDate": "02/05/18 11:49",
    "StartAddress": "Eca Iom",
    "latitude": 8.9929521,
    "longitude": 38.7891201,
    "type": "establishment,point_of_interest",
    "Weekday": 1
  },
  {
    "CallTime": "12:10 PM",
    "CallTimeDate": "02/05/18 12:10",
    "StartAddress": "Airport",
    "latitude": 8.9800689,
    "longitude": 38.7989319,
    "type": "airport,establishment,point_of_interest",
    "Weekday": 1
  },
  {
    "CallTime": "12:12 PM",
    "CallTimeDate": "02/05/18 12:12",
    "StartAddress": "Total",
    "latitude": 9.0480858,
    "longitude": 38.7272519,
    "type": "establishment,gas_station,point_of_interest",
    "Weekday": 1
  },
  {
    "CallTime": "12:15 PM",
    "CallTimeDate": "02/05/18 12:15",
    "StartAddress": "Bole Mafi Mall",
    "latitude": 8.9963835,
    "longitude": 38.7876821,
    "type": "cafe,establishment,food,point_of_interest,shopping_mall",
    "Weekday": 1
  },
  {
    "CallTime": "12:38 PM",
    "CallTimeDate": "02/05/18 12:38",
    "StartAddress": "Cmc",
    "latitude": 9.0082027,
    "longitude": 38.8510787,
    "type": "establishment,health,point_of_interest",
    "Weekday": 1
  },
  {
    "CallTime": "12:43 PM",
    "CallTimeDate": "02/05/18 12:43",
    "StartAddress": "Yerer Alemayehu Building",
    "latitude": 8.9993334,
    "longitude": 38.8207591,
    "type": "premise",
    "Weekday": 1
  },
  {
    "CallTime": "12:49 PM",
    "CallTimeDate": "02/05/18 12:49",
    "StartAddress": "Grrek Club Olompia",
    "latitude": 9.0084889,
    "longitude": 38.7685824,
    "type": "establishment,food,point_of_interest,restaurant",
    "Weekday": 1
  },
  {
    "CallTime": "12:56 PM",
    "CallTimeDate": "02/05/18 12:56",
    "StartAddress": "Genet Hotel",
    "latitude": 9.003332,
    "longitude": 38.7477141,
    "type": "establishment,lodging,point_of_interest",
    "Weekday": 1
  },
  {
    "CallTime": "1:36 AM",
    "CallTimeDate": "02/06/18 1:36",
    "StartAddress": "Megenagna Shola",
    "latitude": 9.0183708,
    "longitude": 38.795966,
    "type": "premise",
    "Weekday": 2
  },
  {
    "CallTime": "1:38 AM",
    "CallTimeDate": "02/06/18 1:38",
    "StartAddress": "Effoy Pizza Atlas",
    "latitude": 9.0025438,
    "longitude": 38.7796968,
    "type": "establishment,food,point_of_interest,restaurant",
    "Weekday": 2
  },
  {
    "CallTime": "1:40 AM",
    "CallTimeDate": "02/06/18 1:40",
    "StartAddress": "Ramada Hotel",
    "latitude": 8.991897,
    "longitude": 38.782873,
    "type": "establishment,lodging,point_of_interest",
    "Weekday": 2
  },
  {
    "CallTime": "1:40 AM",
    "CallTimeDate": "02/06/18 1:40",
    "StartAddress": "Ramada Hotel",
    "latitude": 8.991897,
    "longitude": 38.782873,
    "type": "establishment,lodging,point_of_interest",
    "Weekday": 2
  },
  {
    "CallTime": "1:41 AM",
    "CallTimeDate": "02/06/18 1:41",
    "StartAddress": "Bole",
    "latitude": 8.9831138,
    "longitude": 38.8100855,
    "type": "political,sublocality,sublocality_level_1",
    "Weekday": 2
  },
  {
    "CallTime": "1:43 AM",
    "CallTimeDate": "02/06/18 1:43",
    "StartAddress": "Desalegn Hotel",
    "latitude": 9.0000679,
    "longitude": 38.7796659,
    "type": "establishment,lodging,point_of_interest",
    "Weekday": 2
  },
  {
    "CallTime": "1:45 AM",
    "CallTimeDate": "02/06/18 1:45",
    "StartAddress": "Gotera Condominium",
    "latitude": 8.9847827,
    "longitude": 38.7557975,
    "type": "establishment,point_of_interest",
    "Weekday": 2
  },
  {
    "CallTime": "1:45 AM",
    "CallTimeDate": "02/06/18 1:45",
    "StartAddress": "M.Flower",
    "latitude": 8.9957193,
    "longitude": 38.7666632,
    "type": "route",
    "Weekday": 2
  },
  {
    "CallTime": "1:56 AM",
    "CallTimeDate": "02/06/18 1:56",
    "StartAddress": "Delix Furniture Olompia",
    "latitude": 8.9897223,
    "longitude": 38.7726215,
    "type": "establishment,furniture_store,home_goods_store,point_of_interest,store",
    "Weekday": 2
  },
  {
    "CallTime": "2:08 AM",
    "CallTimeDate": "02/06/18 2:08",
    "StartAddress": "Radisun Blu",
    "latitude": 9.016298,
    "longitude": 38.767855,
    "type": "establishment,lodging,point_of_interest",
    "Weekday": 2
  },
  {
    "CallTime": "2:14 AM",
    "CallTimeDate": "02/06/18 2:14",
    "StartAddress": "22 Rebecca Building",
    "latitude": 9.0154785,
    "longitude": 38.7848024,
    "type": "establishment,finance,point_of_interest",
    "Weekday": 2
  },
  {
    "CallTime": "2:30 AM",
    "CallTimeDate": "02/06/18 2:30",
    "StartAddress": "Bole",
    "latitude": 8.9831138,
    "longitude": 38.8100855,
    "type": "political,sublocality,sublocality_level_1",
    "Weekday": 2
  },
  {
    "CallTime": "2:41 AM",
    "CallTimeDate": "02/06/18 2:41",
    "StartAddress": "Bosten Day Spa",
    "latitude": 8.9907495,
    "longitude": 38.7837711,
    "type": "establishment,point_of_interest,spa",
    "Weekday": 2
  },
  {
    "CallTime": "2:52 AM",
    "CallTimeDate": "02/06/18 2:52",
    "StartAddress": "Shola Kebron Pharmacy",
    "latitude": 9.0211342,
    "longitude": 38.792907,
    "type": "establishment,health,pharmacy,point_of_interest,store",
    "Weekday": 2
  },
  {
    "CallTime": "3:08 AM",
    "CallTimeDate": "02/06/18 3:08",
    "StartAddress": "Greek Club",
    "latitude": 9.0084889,
    "longitude": 38.7685824,
    "type": "establishment,food,point_of_interest,restaurant",
    "Weekday": 2
  },
  {
    "CallTime": "3:10 AM",
    "CallTimeDate": "02/06/18 3:10",
    "StartAddress": "Rakan",
    "latitude": 9.0014242,
    "longitude": 38.7795305,
    "type": "establishment,food,point_of_interest,restaurant",
    "Weekday": 2
  },
  {
    "CallTime": "3:10 AM",
    "CallTimeDate": "02/06/18 3:10",
    "StartAddress": "M.Flower",
    "latitude": 8.9957193,
    "longitude": 38.7666632,
    "type": "route",
    "Weekday": 2
  },
  {
    "CallTime": "3:11 AM",
    "CallTimeDate": "02/06/18 3:11",
    "StartAddress": "Ednamall Commercial Bank",
    "latitude": 8.9963821,
    "longitude": 38.7861452,
    "type": "bank,establishment,finance,point_of_interest",
    "Weekday": 2
  },
  {
    "CallTime": "3:18 AM",
    "CallTimeDate": "02/06/18 3:18",
    "StartAddress": "Bole Ruwanda",
    "latitude": 8.9869641,
    "longitude": 38.7806332,
    "type": "establishment,point_of_interest,taxi_stand",
    "Weekday": 2
  },
  {
    "CallTime": "5:37 AM",
    "CallTimeDate": "02/08/18 5:37",
    "StartAddress": "Jacross",
    "latitude": 9.0055053,
    "longitude": 38.8176038,
    "type": "neighborhood,political",
    "Weekday": 4
  },
  {
    "CallTime": "3:26 AM",
    "CallTimeDate": "02/06/18 3:26",
    "StartAddress": "Golden Tulip",
    "latitude": 8.995529,
    "longitude": 38.787224,
    "type": "establishment,lodging,point_of_interest",
    "Weekday": 2
  },
  {
    "CallTime": "3:50 AM",
    "CallTimeDate": "02/06/18 3:50",
    "StartAddress": "2000 Habesha",
    "latitude": 9.0014322,
    "longitude": 38.7815495,
    "type": "establishment,food,point_of_interest,restaurant",
    "Weekday": 2
  },
  {
    "CallTime": "3:50 AM",
    "CallTimeDate": "02/06/18 3:50",
    "StartAddress": "2000 Habesha",
    "latitude": 9.0014322,
    "longitude": 38.7815495,
    "type": "establishment,food,point_of_interest,restaurant",
    "Weekday": 2
  },
  {
    "CallTime": "4:25 AM",
    "CallTimeDate": "02/06/18 4:25",
    "StartAddress": "Friendship",
    "latitude": 8.9940225,
    "longitude": 38.7847689,
    "type": "establishment,lodging,point_of_interest",
    "Weekday": 2
  },
  {
    "CallTime": "4:29 AM",
    "CallTimeDate": "02/06/18 4:29",
    "StartAddress": "Dumbel City Center",
    "latitude": 9.004895,
    "longitude": 38.767084,
    "type": "establishment,point_of_interest,shopping_mall",
    "Weekday": 2
  },
  {
    "CallTime": "7:00 AM",
    "CallTimeDate": "02/05/18 7:00",
    "StartAddress": "Jackross",
    "latitude": 9.0055053,
    "longitude": 38.8176038,
    "type": "neighborhood,political",
    "Weekday": 1
  },
  {
    "CallTime": "12:38 PM",
    "CallTimeDate": "03/04/18 12:38",
    "StartAddress": "Ibex",
    "latitude": 8.9889053,
    "longitude": 38.7714278,
    "type": "establishment,lodging,point_of_interest",
    "Weekday": 0
  },